site_name,site_address,site_city,site_zip,site_state,Latitude,Longitude,Accuracy Score,Accuracy Type,Number,Street,Unit Type,Unit Number,City,State,County,Zip,Country,Source
PACE Alternative School,201 E Higbee St,Pittsfield,62363-1946,IL,39.600549,-90.806041,1,range_interpolation,201,E Higbee St,,,Pittsfield,IL,Pike County,62363,US,TIGER/Line® dataset from the US Census Bureau
The Lafayette Academy,747 W Lafayette Ave,Jacksonville,62650-1832,IL,39.737652,-90.240497,1,rooftop,747,W Lafayette Ave,,,Jacksonville,IL,Morgan County,62650,US,Morgan
ARC,747 W Lafayette Ave,Jacksonville,62650-1832,IL,39.737652,-90.240497,1,rooftop,747,W Lafayette Ave,,,Jacksonville,IL,Morgan County,62650,US,Morgan
Adams County RSSP,1416 Maine St,Quincy,62301-4261,IL,39.931569,-91.393066,1,rooftop,1416,Maine St,,,Quincy,IL,Adams County,62301,US,Adams
Seymour Elementary School,404 W State St,Payson,62360-1041,IL,39.818201,-91.248042,1,rooftop,404,W State St,,,Payson,IL,Adams County,62360,US,Adams
Adams County of,507 Vermont St Ste G12,Quincy,62301-2998,IL,39.934934,-91.407676,1,rooftop,507,Vermont St,Ste,G12,Quincy,IL,Adams County,62301,US,Adams
Chaddock,205 S 24th St,Quincy,62301-4446,IL,39.929436,-91.375599,1,rooftop,205,S 24th St,,,Quincy,IL,Adams County,62301,US,Adams
Chaddock-Group Home,205 S 24th St,Quincy,62301-4446,IL,39.929436,-91.375599,1,rooftop,205,S 24th St,,,Quincy,IL,Adams County,62301,US,Adams
Lincoln-Douglas Elementary School,3211 Payson Rd,Quincy,62305-6441,IL,39.897854,-91.363588,1,rooftop,3211,Payson Rd,,,Quincy,IL,Adams County,62305,US,Adams
Quincy Jr High School,100 S 14th St,Quincy,62301-4209,IL,39.931225,-91.394067,1,rooftop,100,S 14th St,,,Quincy,IL,Adams County,62301,US,Adams
Sarah Atwater Denman Elementary School,4100 Harrison Street,Quincy,62305-6030,IL,39.911725,-91.355593,0.87,range_interpolation,4100,Harrison Ct,,,Quincy,IL,Adams County,62305,US,TIGER/Line® dataset from the US Census Bureau
Dr. Abby Fox Rooney Elementary School,4900 Columbus Rd,Quincy,,IL,39.945037,-91.33877,1,rooftop,4900,Columbus Rd,,,Quincy,IL,Adams County,62305,US,Adams
Thomas S Baldwin Elementary School,3000 Maine St,Quincy,62301-4417,IL,39.931046,-91.366933,1,rooftop,3000,Maine St,,,Quincy,IL,Adams County,62301,US,Adams
Colonel George Iles Elementary School,3111 N 12th St,Quincy,,IL,39.969153,-91.396689,1,rooftop,3111,N 12th St,,,Quincy,IL,Adams County,62305,US,Adams
Early Childhood,401 S 8th St,Quincy,62301-4149,IL,39.927614,-91.402773,1,rooftop,401,S 8th St,,,Quincy,IL,Adams County,62301,US,Adams
Brown County Elementary School,501 NW Cross St,Mount Sterling,62353-1149,IL,39.989949,-90.765481,1,range_interpolation,501,NW Cross St,,,Mount Sterling,IL,Brown County,62353,US,TIGER/Line® dataset from the US Census Bureau
Brown County Middle School,504 E Main Street,Mount Sterling,62353-1377,IL,39.983415,-90.75446,1,range_interpolation,504,E Main St,,,Mount Sterling,IL,Brown County,62353,US,TIGER/Line® dataset from the US Census Bureau
Beardstown Jr/Sr High School,500 E 15th St,Beardstown,62618-2052,IL,40.008224,-90.422724,1,range_interpolation,500,E 15th St,,,Beardstown,IL,Cass County,62618,US,TIGER/Line® dataset from the US Census Bureau
Gard Elementary School,400 E 15th St,Beardstown,62618-2054,IL,40.007803,-90.423655,1,range_interpolation,400,E 15th St,,,Beardstown,IL,Cass County,62618,US,TIGER/Line® dataset from the US Census Bureau
Grand Ave Sch,1301 Grand Ave,Beardstown,62618-8092,IL,40.00536,-90.436871,1,range_interpolation,1301,Grand Ave,,,Beardstown,IL,Cass County,62618,US,TIGER/Line® dataset from the US Census Bureau
Virginia Jr/ Sr High School,651 S Morgan St,Virginia,62691-1547,IL,39.946809,-90.217039,1,range_interpolation,651,S Morgan St,,,Virginia,IL,Cass County,62691,US,TIGER/Line® dataset from the US Census Bureau
A-C Central Elementary School,191 S Bluff St,Chandlerville,62627-9128,IL,40.048524,-90.147781,0.9,range_interpolation,191,N Bluff St,,,Chandlerville,IL,Cass County,62627,US,TIGER/Line® dataset from the US Census Bureau
Meredosia-Chambersburg High Sch,830 Main St,Meredosia,62665-0440,IL,39.831687,-90.554622,1,rooftop,830,Main St,,,Meredosia,IL,Morgan County,62665,US,Morgan
Meredosia-Chambersburg Jr High,830 Main St,Meredosia,62665-0440,IL,39.831687,-90.554622,1,rooftop,830,Main St,,,Meredosia,IL,Morgan County,62665,US,Morgan
Meredosia-Chambersburg Elem Sch,830 Main Street,Meredosia,62665-0440,IL,39.831687,-90.554622,1,rooftop,830,Main St,,,Meredosia,IL,Morgan County,62665,US,Morgan
Jacksonville Middle School,664 Lincoln Ave,Jacksonville,62650-2384,IL,39.725139,-90.2475,1,rooftop,664,Lincoln Ave,,,Jacksonville,IL,Morgan County,62650,US,Morgan
South Jacksonville Elem School,1700 S West St,South Jacksonville,62650-3279,IL,39.710303,-90.231569,0.9,range_interpolation,1700,Southwest St,,,Jacksonville,IL,Morgan County,62650,US,TIGER/Line® dataset from the US Census Bureau
Crossroad Learning Center,30 N Central Park Plz,Jacksonville,62650-2024,IL,39.734985,-90.229723,1,rooftop,30,N Central Park Plz,,,Jacksonville,IL,Morgan County,62650,US,Morgan
North Jacksonville School,1626 State Highway 78 N,Jacksonville,62650-6228,IL,39.759349,-90.228528,1,rooftop,1626,State Highway 78 N,,,Jacksonville,IL,Morgan County,62650,US,Morgan
Murrayville-Woodson Elem School,PO Box 170,Murrayville,62668-0170,IL,39.5856,-90.25206,0.33,place,170,PO Box,,,Murrayville,IL,Morgan County,62668,US,TIGER/Line® dataset from the US Census Bureau
The Early Years,516 Jordan St,Jacksonville,62650-1997,IL,39.735761,-90.235899,1,rooftop,516,Jordan St,,,Jacksonville,IL,Morgan County,62650,US,Morgan
Washington Elem School,524 S Kosciusko St,Jacksonville,62650-2865,IL,39.729876,-90.235881,1,rooftop,524,S Kosciusko St,,,Jacksonville,IL,Morgan County,62650,US,Morgan
Lincoln Elem School,320 W Independence Ave,Jacksonville,62650-1350,IL,39.74194,-90.232309,1,rooftop,320,W Independence Ave,,,Jacksonville,IL,Morgan County,62650,US,Morgan
Ivan K Garrison Center,936 W Michigan Ave,Jacksonville,62650-3113,IL,39.716553,-90.242895,1,rooftop,936,W Michigan Ave,,,Jacksonville,IL,Morgan County,62650,US,Morgan
Pleasant Hill High School,PO Box 277,Pleasant Hill,62366-0277,IL,39.447008,-90.87168,0.33,place,277,PO Box,,,Pleasant Hill,IL,Pike County,62366,US,TIGER/Line® dataset from the US Census Bureau
Pleasant Hill Elem School,PO Box 277,Pleasant Hill,62366-0277,IL,39.447008,-90.87168,0.33,place,277,PO Box,,,Pleasant Hill,IL,Pike County,62366,US,TIGER/Line® dataset from the US Census Bureau
Griggsville-Perry High School,PO Box 439,Griggsville,62340-0439,IL,39.741573,-90.749386,0.33,place,439,PO Box,,,Griggsville,IL,Pike County,62340,US,TIGER/Line® dataset from the US Census Bureau
Griggsville-Perry Primary School,PO Box 439,Griggsville,62340-0439,IL,39.741573,-90.749386,0.33,place,439,PO Box,,,Griggsville,IL,Pike County,62340,US,TIGER/Line® dataset from the US Census Bureau
Griggsville-Perry Middle School,PO Box 98,Perry,62362-0098,IL,39.78247,-90.747978,0.33,place,98,PO Box,,,Perry,IL,Pike County,62362,US,TIGER/Line® dataset from the US Census Bureau
Pittsfield South Elem School,655 Clarksville Rd,Pittsfield,62363-1801,IL,39.598621,-90.809559,1,range_interpolation,655,Clarksville Rd,,,Pittsfield,IL,Pike County,62363,US,TIGER/Line® dataset from the US Census Bureau
Western High School,401 McDonough St,Barry,62312-1031,IL,39.696139,-91.044899,1,range_interpolation,401,McDonough St,,,Barry,IL,Pike County,62312,US,TIGER/Line® dataset from the US Census Bureau
Western Barry Elem,401 McDonough St,Barry,62312-1031,IL,39.696139,-91.044899,1,range_interpolation,401,McDonough St,,,Barry,IL,Pike County,62312,US,TIGER/Line® dataset from the US Census Bureau
Western Jr High School,PO Box 189,Kinderhook,62345-0189,IL,39.70227,-91.1532,0.33,place,189,PO Box,,,Kinderhook,IL,Pike County,62345,US,TIGER/Line® dataset from the US Census Bureau
Bluffs High School,100 W Rockwood St,Bluffs,62621-8114,IL,39.753513,-90.537005,1,range_interpolation,100,W Rockwood St,,,Bluffs,IL,Scott County,62621,US,TIGER/Line® dataset from the US Census Bureau
Bluffs Junior High School,PO Box 230,Bluffs,62621-0230,IL,39.729634,-90.531307,0.33,place,230,PO Box,,,Bluffs,IL,Scott County,62621,US,TIGER/Line® dataset from the US Census Bureau
Bluffs Elementary School,PO Box 230,Bluffs,62621-0230,IL,39.729634,-90.531307,0.33,place,230,PO Box,,,Bluffs,IL,Scott County,62621,US,TIGER/Line® dataset from the US Census Bureau
Revive Alternative High School,113 N School St,Raymond,,IL,39.324491,-89.572909,1,range_interpolation,113,N School St,,,Raymond,IL,Montgomery County,62560,US,TIGER/Line® dataset from the US Census Bureau
New Approach Alternative High Sch,1500 W Jefferson St,Vandalia,62471-1510,IL,38.966496,-89.110598,1,range_interpolation,1500,W Jefferson St,,,Vandalia,IL,Fayette County,62471,US,TIGER/Line® dataset from the US Census Bureau
Aspire Alternative High School,900 W Edgar Ave,Effingham,62401-1933,IL,39.119185,-88.552796,1,range_interpolation,900,W Edgar Ave,,,Effingham,IL,Effingham County,62401,US,TIGER/Line® dataset from the US Census Bureau
Tristar Acad Safe Sch Program,900 W Edgar Ave,Effingham,62401-1933,IL,39.119185,-88.552796,1,range_interpolation,900,W Edgar Ave,,,Effingham,IL,Effingham County,62401,US,TIGER/Line® dataset from the US Census Bureau
FOCUS Safe Sch Program,1500 W Jefferson St,Vandalia,62471-1510,IL,38.966496,-89.110598,1,range_interpolation,1500,W Jefferson St,,,Vandalia,IL,Fayette County,62471,US,TIGER/Line® dataset from the US Census Bureau
Phoenix Safe Schools Program,113 N School St,Raymond,,IL,39.324491,-89.572909,1,range_interpolation,113,N School St,,,Raymond,IL,Montgomery County,62560,US,TIGER/Line® dataset from the US Census Bureau
Mulberry Grove Elem School,801 W Wall St,Mulberry Grove,62262-1049,IL,38.923561,-89.279588,1,range_interpolation,801,W Wall St,,,Mulberry Grove,IL,Bond County,62262,US,TIGER/Line® dataset from the US Census Bureau
Sorento Elem School,510 S Main St,Sorento,62086-3017,IL,38.994996,-89.573334,1,range_interpolation,510,S Main St,,,Sorento,IL,Bond County,62086,US,TIGER/Line® dataset from the US Census Bureau
Greenville Elem School,800 N Dewey St,Greenville,62246-1383,IL,38.897162,-89.397116,1,range_interpolation,800,N Dewey St,,,Greenville,IL,Bond County,62246,US,TIGER/Line® dataset from the US Census Bureau
Morrisonville Jr High School,PO Box 13,Morrisonville,62546-0013,IL,39.42005,-89.45565,0.33,place,13,PO Box,,,Morrisonville,IL,Christian County,62546,US,TIGER/Line® dataset from the US Census Bureau
Kemmerer Village,941 N 2500 East Rd,Assumption,62510-8026,IL,39.485506,-89.063654,0.7,rooftop,941,N 2500 East Rd~assumption,,,Pana,IL,Christian County,62557,US,Christian
Taylorville Jr High School,120 E Bidwell St,Taylorville,62568-1358,IL,39.557596,-89.294555,1,rooftop,120,E Bidwell St~,,,Taylorville,IL,Christian County,62568,US,Christian
Memorial Elem School,101 E Adams St,Taylorville,62568-2201,IL,39.546584,-89.294888,1,range_interpolation,101,E Adams St,,,Taylorville,IL,Christian County,62568,US,TIGER/Line® dataset from the US Census Bureau
North Elem School,805 N Cherokee St,Taylorville,62568-1450,IL,39.557313,-89.290627,1,range_interpolation,805,N Cherokee St,,,Taylorville,IL,Christian County,62568,US,TIGER/Line® dataset from the US Census Bureau
Pana Sr High School,PO Box 377,Pana,62557-0377,IL,39.38893,-89.08008,0.33,place,377,PO Box,,,Pana,IL,Christian County,62557,US,TIGER/Line® dataset from the US Census Bureau
Washington Elem School,PO Box 377,Pana,62557-0377,IL,39.38893,-89.08008,0.33,place,377,PO Box,,,Pana,IL,Christian County,62557,US,TIGER/Line® dataset from the US Census Bureau
Pana Jr High School,PO Box 377,Pana,62557-0377,IL,39.38893,-89.08008,0.33,place,377,PO Box,,,Pana,IL,Christian County,62557,US,TIGER/Line® dataset from the US Census Bureau
Lincoln Elem School,PO Box 377,Pana,62557-0377,IL,39.38893,-89.08008,0.33,place,377,PO Box,,,Pana,IL,Christian County,62557,US,TIGER/Line® dataset from the US Census Bureau
South Fork Jr Sr High School,PO Box 20,Kincaid,62540-4457,IL,39.58866,-89.41454,0.33,place,20,PO Box,,,Kincaid,IL,Christian County,62540,US,TIGER/Line® dataset from the US Census Bureau
South Fork Elementary School,PO Box 20,Kincaid,62540-4532,IL,39.58866,-89.41454,0.33,place,20,PO Box,,,Kincaid,IL,Christian County,62540,US,TIGER/Line® dataset from the US Census Bureau
Altamont Grade School,407 S Edwards St,Altamont,62411-1701,IL,39.054499,-88.744397,1,rooftop,407,S Edwards St,,,Altamont,IL,Effingham County,62411,US,Effingham
Early Learning Center,3224 S Banker St,Effingham,62401-2910,IL,39.08018,-88.546256,1,rooftop,3224,S Banker St,,,Effingham,IL,Effingham County,62401,US,Effingham
Central Grade School,3901 S Banker St.,Effingham,62401-5405,IL,39.107766,-88.5468,0.6,street_center,,S Banker St,,,Effingham,IL,Effingham County,62401,US,TIGER/Line® dataset from the US Census Bureau
South Side Grade School,211 W Douglas Ave,Effingham,62401-2720,IL,39.111449,-88.544345,1,rooftop,211,W Douglas Ave,,,Effingham,IL,Effingham County,62401,US,Effingham
Brownstown Jr High School,421 S College Ave,Brownstown,62418-1129,IL,38.992327,-88.955978,1,range_interpolation,421,S College Ave,,,Brownstown,IL,Fayette County,62418,US,TIGER/Line® dataset from the US Census Bureau
Brownstown Elem School,460 W South St,Brownstown,62418-1120,IL,38.992628,-88.959646,1,range_interpolation,460,W South St,,,Brownstown,IL,Fayette County,62418,US,TIGER/Line® dataset from the US Census Bureau
Brownstown High School,421 S College Ave,Brownstown,62418-1129,IL,38.992327,-88.955978,1,range_interpolation,421,S College Ave,,,Brownstown,IL,Fayette County,62418,US,TIGER/Line® dataset from the US Census Bureau
St Elmo Sr High School,300 W 12th St,Saint Elmo,62458-1324,IL,39.03499,-88.851424,1,range_interpolation,300,12th St,,,Saint Elmo,IL,Fayette County,62458,US,TIGER/Line® dataset from the US Census Bureau
St Elmo Jr High School,300 W 12th St,Saint Elmo,62458-1324,IL,39.03499,-88.851424,1,range_interpolation,300,12th St,,,Saint Elmo,IL,Fayette County,62458,US,TIGER/Line® dataset from the US Census Bureau
St Elmo Elem School,519 W 2nd St,Saint Elmo,62458-1153,IL,39.025141,-88.854974,1,range_interpolation,519,W 2nd St,,,Saint Elmo,IL,Fayette County,62458,US,TIGER/Line® dataset from the US Census Bureau
Vandalia Junior High School,1011 W Fletcher St,Vandalia,62471-1007,IL,38.975018,-89.102147,1,range_interpolation,1011,W Fletcher St,,,Vandalia,IL,Fayette County,62471,US,TIGER/Line® dataset from the US Census Bureau
Vandalia Elementary School,1017 W Fletcher St,Vandalia,62471-1007,IL,38.975018,-89.102058,1,range_interpolation,1017,W Fletcher St,,,Vandalia,IL,Fayette County,62471,US,TIGER/Line® dataset from the US Census Bureau
Ramsey High School,702 W 6th St,Ramsey,62080-0010,IL,39.139883,-89.11608,0.6,street_center,,W 6th St,,,Ramsey,IL,Fayette County,62080,US,TIGER/Line® dataset from the US Census Bureau
Ramsey Elem School,516 W 6th St,Ramsey,62080-0030,IL,39.521653,-89.057703,0.6,rooftop,516,W 1st St~,,,Assumption,IL,Christian County,62510,US,Christian
Raymond Grade School,505 N Prairie St,Raymond,62560-4906,IL,39.325005,-89.571762,0.9,range_interpolation,505,Prairie St,,,Raymond,IL,Montgomery County,62560,US,TIGER/Line® dataset from the US Census Bureau
Lincolnwood Jr High School,507 N Prairie St,Raymond,62560-4906,IL,39.325019,-89.571749,0.9,range_interpolation,507,Prairie St,,,Raymond,IL,Montgomery County,62560,US,TIGER/Line® dataset from the US Census Bureau
Beckemeyer Elem School,1035 Seymour Ave,Hillsboro,62049-1060,IL,39.151077,-89.501272,1,range_interpolation,1035,Seymour Ave,,,Hillsboro,IL,Montgomery County,62049,US,TIGER/Line® dataset from the US Census Bureau
Coffeen Elem School,200 School St,Coffeen,62017-1235,IL,39.09264,-89.384936,0.6,street_center,,School St,,,Coffeen,IL,Montgomery County,62017,US,TIGER/Line® dataset from the US Census Bureau
Regional Learning Academy Star Boone,1320 East Ave,Belvidere,,IL,42.24717,-88.829539,1,rooftop,1320,East Ave,,,Belvidere,IL,Boone County,61008,US,Boone
Reg'l Learning Academy Star Winn,5949 Safford Rd,Rockford,61101-2276,IL,42.302669,-89.153748,1,range_interpolation,5949,Safford Rd,,,Rockford,IL,Winnebago County,61101,US,TIGER/Line® dataset from the US Census Bureau
Meehan Elementary School,1401 E 6th St,Belvidere,61008-6503,IL,42.248083,-88.82423,1,range_interpolation,1401,E 6th St,,,Belvidere,IL,Boone County,61008,US,TIGER/Line® dataset from the US Census Bureau
Belvidere High School,1500 East Ave,Belvidere,61008-4563,IL,42.244647,-88.82961,1,rooftop,1500,East Ave,,,Belvidere,IL,Boone County,61008,US,Boone
Lincoln Elem School,1011 Bonus Ave,Belvidere,61008-2343,IL,42.27671,-88.831624,1,range_interpolation,1011,Bonus Ave,,,Belvidere,IL,Boone County,61008,US,TIGER/Line® dataset from the US Census Bureau
Belvidere South Middle School,919 E 6th St,Belvidere,61008-4500,IL,42.247723,-88.829595,1,range_interpolation,919,E 6th St,,,Belvidere,IL,Boone County,61008,US,TIGER/Line® dataset from the US Census Bureau
Washington Academy,1031 5th Ave,Belvidere,61008-5139,IL,42.250343,-88.848072,1,rooftop,1031,5th Ave,,,Belvidere,IL,Boone County,61008,US,Boone
Perry Elem School,633 W Perry St,Belvidere,61008-3153,IL,42.259483,-88.853092,1,range_interpolation,633,W Perry St,,,Belvidere,IL,Boone County,61008,US,TIGER/Line® dataset from the US Census Bureau
Capron Elem School,200 N Wooster St,Capron,61012-9550,IL,42.400915,-88.747722,1,rooftop,200,N Wooster St,,,Capron,IL,Boone County,61012,US,Boone
County of Winnebago,404 Elm St Rm 533,Rockford,61101-1239,IL,42.271066,-89.097172,1,rooftop,404,Elm St,Ste,533,Rockford,IL,Winnebago County,61101,US,Winnebago
Madison Group Home,4450 N Rockton Ave,Rockford,61103-1526,IL,42.324045,-89.099391,1,rooftop,4450,N Rockton Ave,,,Rockford,IL,Winnebago County,61103,US,Winnebago
Adams Group Home,4450 N Rockton Ave,Rockford,61103-1526,IL,42.324045,-89.099391,1,rooftop,4450,N Rockton Ave,,,Rockford,IL,Winnebago County,61103,US,Winnebago
Jefferson Group Home,4450 N Rockton Ave,Rockford,61103-1526,IL,42.324045,-89.099391,1,rooftop,4450,N Rockton Ave,,,Rockford,IL,Winnebago County,61103,US,Winnebago
Harlem High School,9229 N Alpine Rd,Machesney Park,61115-1924,IL,42.357432,-89.026287,1,rooftop,9229,N Alpine Rd,,,Machesney Park,IL,Winnebago County,61115,US,Winnebago
Machesney Elem School,8615 N 2nd St,Machesney Park,61115-2003,IL,42.348374,-89.049554,1,range_interpolation,8615,N 2nd St,,,Machesney Park,IL,Winnebago County,61115,US,TIGER/Line® dataset from the US Census Bureau
Harlem Middle School,735 Windsor Rd,Loves Park,61111-4152,IL,42.324313,-89.051338,1,rooftop,735,Windsor Rd,,,Loves Park,IL,Winnebago County,61111,US,Winnebago
Rock Cut Elem School,7944 Forest Hills Rd,Loves Park,61111-3312,IL,42.339396,-89.0183,1,range_interpolation,7944,Forest Hills Rd,,,Loves Park,IL,Winnebago County,61111,US,TIGER/Line® dataset from the US Census Bureau
Marquette Elem School,8500 Victory Ln,Machesney Park,61115-2381,IL,42.34565,-89.058394,1,range_interpolation,8500,Victory Ln,,,Machesney Park,IL,Winnebago County,61115,US,TIGER/Line® dataset from the US Census Bureau
Donald C Parker Early Educ Center,808 Harlem Rd,Machesney Park,61115-2514,IL,42.339753,-89.048784,1,range_interpolation,808,Harlem Rd,,,Machesney Park,IL,Winnebago County,61115,US,TIGER/Line® dataset from the US Census Bureau
Maple Elem School,1405 Maple Ave,Loves Park,61111-3006,IL,42.335322,-89.036882,1,rooftop,1405,Maple Ave,,,Loves Park,IL,Winnebago County,61111,US,Winnebago
Windsor Elem School,935 Windsor Rd,Loves Park,61111-4228,IL,42.324315,-89.047609,1,rooftop,935,Windsor Rd,,,Loves Park,IL,Winnebago County,61111,US,Winnebago
Loves Park Elem School,344 Grand Ave,Loves Park,61111-4511,IL,42.313196,-89.060636,1,rooftop,344,Grand Ave,,,Loves Park,IL,Winnebago County,61111,US,Winnebago
Montessori Elementary School,2021 Hawthorne Dr,Rockford,61107-1342,IL,42.289969,-89.035626,1,rooftop,2021,Hawthorne Dr,,,Rockford,IL,Winnebago County,61107,US,Winnebago
Spring Creek Elem School,5222 Spring Creek Rd,Rockford,61114-6330,IL,42.298175,-89.015086,1,rooftop,5222,Spring Creek Rd,,,Rockford,IL,Winnebago County,61114,US,Winnebago
Brookview Elem School,1750 Madron Rd,Rockford,61107-2459,IL,42.288226,-89.015246,1,rooftop,1750,Madron Rd,,,Rockford,IL,Winnebago County,61107,US,Winnebago
Guilford High School,5620 Spring Creek Rd,Rockford,61114-6442,IL,42.299443,-89.006833,1,rooftop,5620,Spring Creek Rd,,,Rockford,IL,Winnebago County,61114,US,Winnebago
Cherry Valley Elementary School,6754 Armer Dr,Rockford,,IL,42.33342,-89.157198,0.33,place,,,,,Rockford,IL,Winnebago County,61101,US,TIGER/Line® dataset from the US Census Bureau
Eisenhower Middle School,3525 Spring Creek Rd,Rockford,61107-1151,IL,42.291012,-89.040059,1,rooftop,3525,Spring Creek Rd,,,Rockford,IL,Winnebago County,61107,US,Winnebago
Arthur Froberg Elem School,4555 20th St,Rockford,61109-3135,IL,42.215689,-89.05901,1,rooftop,4555,20th St,,,Rockford,IL,Winnebago County,61109,US,Winnebago
Auburn High School,5110 Auburn St,Rockford,61101-2402,IL,42.284548,-89.137949,1,rooftop,5110,Auburn St,,,Rockford,IL,Winnebago County,61101,US,Winnebago
Maud E Johnson Elem School,3805 Rural St,Rockford,61107-3555,IL,42.273594,-89.0378,1,rooftop,3805,Rural St,,,Rockford,IL,Winnebago County,61107,US,Winnebago
Fairview Early Childhood Center,512 Fairview Ave,Rockford,61108-1910,IL,42.261127,-89.041231,1,rooftop,512,Fairview Ave,,,Rockford,IL,Winnebago County,61108,US,Winnebago
Rockford East High School,2929 Charles St,Rockford,61108-1702,IL,42.256466,-89.049868,1,rooftop,2929,Charles St,,,Rockford,IL,Winnebago County,61108,US,Winnebago
Haskell Elementary School,515 Maple St,Rockford,61103-6711,IL,42.280578,-89.09394,1,range_interpolation,515,Maple St,,,Rockford,IL,Winnebago County,61103,US,TIGER/Line® dataset from the US Census Bureau
Conklin Elem School,3003 Halsted Rd,Rockford,61101-2705,IL,42.31112,-89.104069,1,rooftop,3003,Halsted Rd,,,Rockford,IL,Winnebago County,61101,US,Winnebago
Clifford P Carlson Elem School,4015 Pepper Dr,Rockford,61114-5280,IL,42.30618,-89.038402,1,rooftop,4015,Pepper Dr,,,Rockford,IL,Winnebago County,61114,US,Winnebago
McIntosh Elementary,525 N Pierpont Ave,Rockford,61101-5036,IL,42.283675,-89.134245,1,rooftop,525,N Pierpont Ave,,,Rockford,IL,Winnebago County,61101,US,Winnebago
Gregory Elem School,4820 Carol Ct,Rockford,61108-4175,IL,42.259272,-89.014896,1,rooftop,4820,Carol Ct,,,Rockford,IL,Winnebago County,61108,US,Winnebago
Lewis Lemon Elementary,1993 Mulberry St,Rockford,61101-5670,IL,42.277574,-89.119221,1,range_interpolation,1993,Mulberry St,,,Rockford,IL,Winnebago County,61101,US,TIGER/Line® dataset from the US Census Bureau
C Henry Bloom Elem School,2912 Brendenwood Rd,Rockford,61107-1907,IL,42.28129,-89.049761,1,rooftop,2912,Brendenwood Rd,,,Rockford,IL,Winnebago County,61107,US,Winnebago
Julia Lathrop Elem School,2603 Clover Ave,Rockford,61102-3471,IL,42.247751,-89.114629,1,range_interpolation,2603,Clover Ave,,,Rockford,IL,Winnebago County,61102,US,TIGER/Line® dataset from the US Census Bureau
Ellis Elementary School,222 S Central Ave,Rockford,61102-2011,IL,42.274545,-89.115852,1,rooftop,222,S Central Ave,,,Rockford,IL,Winnebago County,61102,US,Winnebago
R K Welsh Elem School,2100 Huffman Blvd,Rockford,61103-3946,IL,42.295251,-89.088831,1,rooftop,2100,Huffman Blvd,,,Rockford,IL,Winnebago County,61103,US,Winnebago
West View Elem School,1720 Halsted Rd,Rockford,61103-3067,IL,42.308913,-89.086335,1,rooftop,1720,Halsted Rd,,,Rockford,IL,Winnebago County,61103,US,Winnebago
Washington Elementary School,1421 West St,Rockford,61102-3232,IL,42.257412,-89.106808,1,range_interpolation,1421,W St,,,Rockford,IL,Winnebago County,61102,US,TIGER/Line® dataset from the US Census Bureau
Rolling Green,3615 W Gate Pkwy,Rockford,61108-6162,IL,42.247283,-89.03921,1,range_interpolation,3615,W Gate Pkwy,,,Rockford,IL,Winnebago County,61108,US,TIGER/Line® dataset from the US Census Bureau
Kennedy Middle School,520 N Pierpont Ave,Rockford,61101-5037,IL,42.281145,-89.135625,1,range_interpolation,520,N Pierpont Ave,,,Rockford,IL,Winnebago County,61101,US,TIGER/Line® dataset from the US Census Bureau
Constance Lane Elementary School,620 Gregory St,Rockford,61104-4636,IL,42.258597,-89.087247,1,rooftop,620,Gregory St,,,Rockford,IL,Winnebago County,61104,US,Winnebago
Beyer Elem School,333 15th Ave,Rockford,61104-5101,IL,42.250117,-89.093413,1,rooftop,333,15th Ave,,,Rockford,IL,Winnebago County,61104,US,Winnebago
Wm Nashold Early Childhood Center,3303 20th St,Rockford,61109-2312,IL,42.22506,-89.05885,1,rooftop,3303,20th St,,,Rockford,IL,Winnebago County,61109,US,Winnebago
Summerdale Elem School,3320 Glenwood Ave,Rockford,61101-3468,IL,42.300174,-89.105223,1,rooftop,3320,Glenwood Ave,,,Rockford,IL,Winnebago County,61101,US,Winnebago
Swan Hillman Elem School,3701 Green Dale Dr,Rockford,61109-1543,IL,42.234205,-89.037957,1,range_interpolation,3701,Green Dale Dr,,,Rockford,IL,Winnebago County,61109,US,TIGER/Line® dataset from the US Census Bureau
Whitehead Elem School,2325 Ohio Pkwy,Rockford,61108-7514,IL,42.24246,-89.04697,1,range_interpolation,2325,Ohio Pkwy,,,Rockford,IL,Winnebago County,61108,US,TIGER/Line® dataset from the US Census Bureau
Abraham Lincoln Middle School,1500 Charles St,Rockford,61104-2310,IL,42.264515,-89.071019,1,rooftop,1500,Charles St,,,Rockford,IL,Winnebago County,61104,US,Winnebago
Roosevelt Center,978 Haskell Ave,Rockford,61103-6046,IL,42.283089,-89.093118,1,rooftop,978,Haskell Ave,,,Rockford,IL,Winnebago County,61103,US,Winnebago
Riverdahl Elem School,3520 Kishwaukee St,Rockford,61109-2005,IL,42.221571,-89.084539,1,rooftop,3520,Kishwaukee St,,,Rockford,IL,Winnebago County,61109,US,Winnebago
Barbour Two-Way Lang Immersion,1506 Clover Ave,Rockford,61102-3100,IL,42.257431,-89.114826,1,range_interpolation,1506,Clover Ave,,,Rockford,IL,Winnebago County,61102,US,TIGER/Line® dataset from the US Census Bureau
Bernard W Flinn Middle School,2525 Ohio Pkwy,Rockford,61108-7517,IL,42.239619,-89.049341,1,rooftop,2525,Ohio Pkwy,,,Rockford,IL,Winnebago County,61108,US,Winnebago
West Middle School,1900 N Rockton Ave,Rockford,61103-4370,IL,42.292784,-89.096701,1,range_interpolation,1900,N Rockton Ave,,,Rockford,IL,Winnebago County,61103,US,TIGER/Line® dataset from the US Census Bureau
Rockford Envrnmntl Science Acad,1800 Ogilby Rd,Rockford,61102-3445,IL,42.246288,-89.126732,1,rooftop,1800,Ogilby Rd,,,Rockford,IL,Winnebago County,61102,US,Winnebago
Jefferson High School,4145 Samuelson Rd,Rockford,61109-3249,IL,42.208961,-89.045409,1,range_interpolation,4145,Samuelson Rd,,,Rockford,IL,Winnebago County,61109,US,TIGER/Line® dataset from the US Census Bureau
Legacy Acad of Excellence Charter Sch,4029 Prairie Rd,Rockford,61102-4501,IL,42.222771,-89.128481,1,rooftop,4029,Prairie Rd,,,Rockford,IL,Winnebago County,61102,US,Winnebago
Galapagos Rockford Charter Sch,2605 School St,Rockford,61101-5264,IL,42.281118,-89.12704,1,range_interpolation,2605,School St,,,Rockford,IL,Winnebago County,61101,US,TIGER/Line® dataset from the US Census Bureau
Jackson Charter School,315 Summit St,Rockford,61107-4231,IL,42.269802,-89.072927,1,rooftop,315,Summit St,,,Rockford,IL,Winnebago County,61107,US,Winnebago
South Beloit Sr High School,245 Prairie Hill Rd,South Beloit,61080-2579,IL,42.470688,-89.045911,1,range_interpolation,245,Prairie Hill Rd,,,South Beloit,IL,Winnebago County,61080,US,TIGER/Line® dataset from the US Census Bureau
South Beloit Jr High School,840 Blackhawk Blvd,South Beloit,61080-2263,IL,42.48495,-89.040613,1,range_interpolation,840,Blackhawk Blvd,,,South Beloit,IL,Winnebago County,61080,US,TIGER/Line® dataset from the US Census Bureau
Riverview Elementary School,306 Miller St,South Beloit,61080-1816,IL,42.491957,-89.050453,1,range_interpolation,306,Miller St,,,South Beloit,IL,Winnebago County,61080,US,TIGER/Line® dataset from the US Census Bureau
Blackhawk Elementary School,840 Blackhawk Blvd,South Beloit,61080-2263,IL,42.48495,-89.040613,1,range_interpolation,840,Blackhawk Blvd,,,South Beloit,IL,Winnebago County,61080,US,TIGER/Line® dataset from the US Census Bureau
Clark Elementary School,464 Oak Grove Ave,South Beloit,61080-1967,IL,42.486826,-89.036557,0.9,range_interpolation,464,Oak Grove Ave,,,South Beloit,IL,Winnebago County,61080,US,TIGER/Line® dataset from the US Census Bureau
Dolan Ctr Maryville Farm Campus,10104 Farm School Rd,Durand,61024-9725,IL,42.411612,-89.233903,0.63,nearest_rooftop_match,10018,Farm School Rd,,,Durand,IL,Winnebago County,61024,US,Winnebago
Gray M Sanborn Elem School,101 N Oak St,Palatine,60067-5246,IL,42.112272,-88.03807,1,rooftop,101,N Oak St,,,Palatine,IL,Cook County,60067,US,Cook
Winston Campus Jr High,120 N Babcock Dr,Palatine,60074-5599,IL,42.112511,-88.021915,0.9,range_interpolation,120,N Babcock Dr,,,Palatine,IL,Cook County,60074,US,TIGER/Line® dataset from the US Census Bureau
Lake Louise Elem School,500 N Jonathan Dr,Palatine,60074-4114,IL,42.119413,-88.00821,1,rooftop,500,N Jonathan Dr,,,Palatine,IL,Cook County,60074,US,Cook
Virginia Lake Elem School,925 N Glenn Dr,Palatine,60074-7189,IL,42.127784,-88.022863,1,rooftop,925,N Glenn Dr,,,Palatine,IL,Cook County,60074,US,Cook
John G Conyers Learning Academy,2800 Central Rd,Rolling Meadows,60008-2535,IL,42.067997,-88.015994,1,rooftop,2800,Central Rd,,,Rolling Meadows,IL,Cook County,60008,US,Cook
Jane Addams Elem School,1020 E Sayles Dr,Palatine,60074-7274,IL,42.123823,-88.018337,1,rooftop,1020,E Sayles Dr,,,Palatine,IL,Cook County,60074,US,Cook
Booth Tarkington Elem School,310 Scott St,Wheeling,60090-4432,IL,42.13265,-87.950868,1,rooftop,310,Scott St,,,Wheeling,IL,Cook County,60090,US,Cook
Jack London Middle School,1001 W Dundee Rd,Wheeling,60090-3908,IL,42.138039,-87.942536,1,rooftop,1001,W Dundee Rd,,,Wheeling,IL,Cook County,60090,US,Cook
Joyce Kilmer Elem School,655 Golfview Ter,Buffalo Grove,60089-3536,IL,42.142108,-87.96398,0.87,rooftop,655,Golfview Ter,,,Buffalo Grove,IL,Cook County,60089,US,Cook
Robert Frost Elem School,1805 N Aspen Dr,Mount Prospect,60056-1682,IL,42.099766,-87.89963,1,range_interpolation,1805,N Aspen Dr,,,Mount Prospect,IL,Cook County,60056,US,TIGER/Line® dataset from the US Census Bureau
Mark Twain Elem School,515 E Merle Ln,Wheeling,60090-4749,IL,42.129449,-87.930981,1,rooftop,515,E Merle Ln,,,Wheeling,IL,Cook County,60090,US,Cook
Walt Whitman Elem School,133 Wille Ave,Wheeling,60090-3127,IL,42.137442,-87.909456,1,range_interpolation,133,Wille Ave,,,Wheeling,IL,Cook County,60090,US,TIGER/Line® dataset from the US Census Bureau
Eugene Field Elem School,51 Saint Armand Ln,Wheeling,60090-3924,IL,42.139712,-87.94412,1,rooftop,51,St Armand Ln,,,Wheeling,IL,Cook County,60090,US,Cook
Oliver W Holmes Middle School,221 S Wolf Rd,Wheeling,60090-4843,IL,42.135065,-87.914084,1,rooftop,221,S Wolf Rd,,,Wheeling,IL,Cook County,60090,US,Cook
Devonshire School,1401 Pennsylvania Ave,Des Plaines,60018-1120,IL,42.027368,-87.925993,1,rooftop,1401,Pennsylvania Ave,,,Des Plaines,IL,Cook County,60018,US,Cook
Friendship Jr High School,550 Elizabeth Ln,Des Plaines,60018-5573,IL,42.027448,-87.934205,1,rooftop,550,Elizabeth Ln,,,Des Plaines,IL,Cook County,60018,US,Cook
Holmes Jr High School,1900 W Lonnquist Blvd,Mount Prospect,60056-3536,IL,42.054133,-87.966808,1,rooftop,1900,W Lonnquist Blvd,,,Mount Prospect,IL,Cook County,60056,US,Cook
Grove Jr High School,777 W Elk Grove Blvd,Elk Grove Village,60007-4221,IL,42.007238,-87.990469,1,rooftop,777,W Elk Grove Blvd,,,Elk Grove Village,IL,Cook County,60007,US,Cook
Salt Creek Elem School,65 JF Kennedy Blvd,Elk Grove Village,60007-3629,IL,42.00369,-87.99991,1,range_interpolation,65,Jf Kennedy Blvd,,,Elk Grove Village,IL,Cook County,60007,US,TIGER/Line® dataset from the US Census Bureau
Juliette Low Elem School,1530 S Highland Ave,Arlington Heights,60005-3630,IL,42.055875,-87.987545,1,rooftop,1530,S Highland Ave,,,Arlington Heights,IL,Cook County,60005,US,Cook
Robert Frost Elem School,1308 S Cypress Dr,Mount Prospect,60056-5004,IL,42.042891,-87.953142,1,range_interpolation,1308,S Cypress Dr,,,Mount Prospect,IL,Cook County,60056,US,TIGER/Line® dataset from the US Census Bureau
Adm Richard E Byrd Elem School,265 Wellington Ave,Elk Grove Village,60007-3405,IL,41.99661,-88.00919,1,rooftop,265,Wellington Ave,,,Elk Grove Village,IL,Cook County,60007,US,Cook
Rupley Elem School,305 Oakton St,Elk Grove Village,60007-1727,IL,42.021717,-87.985436,1,rooftop,305,Oakton St,,,Elk Grove Village,IL,Cook County,60007,US,Cook
John Jay Elem School,1835 W Pheasant Trl,Mount Prospect,60056-4556,IL,42.041633,-87.96576,1,range_interpolation,1835,W Pheasant Trl,,,Mount Prospect,IL,Cook County,60056,US,TIGER/Line® dataset from the US Census Bureau
Algonquin Middle School,767 E Algonquin Rd,Des Plaines,60016-6251,IL,42.030261,-87.905652,0.95,rooftop,767,E Algonquin Rd,,,Des Plaines,IL,Cook County,60018,US,Cook
Plainfield Elem School,1850 Plainfield Dr,Des Plaines,60018-2053,IL,42.019115,-87.902541,1,rooftop,1850,Plainfield Dr,,,Des Plaines,IL,Cook County,60018,US,Cook
Orchard Place Elem School,2727 Maple St,Des Plaines,60018-3843,IL,42.003844,-87.879113,1,rooftop,2727,Maple St,,,Des Plaines,IL,Cook County,60018,US,Cook
North Elementary School,1789 Rand Rd,Des Plaines,60016-3509,IL,42.044111,-87.881179,1,rooftop,1789,Rand Rd,,,Des Plaines,IL,Cook County,60016,US,Cook
Gemini Middle School,8955 N Greenwood Ave,Niles,60714-1416,IL,42.042401,-87.838735,1,rooftop,8955,N Greenwood Ave,,,Niles,IL,Cook County,60714,US,Cook
Mark Twain Elem School,9401 N Hamlin Ave,Niles,60714-5869,IL,42.051887,-87.849722,1,rooftop,9401,N Hamlin Ave,,,Niles,IL,Cook County,60714,US,Cook
V H Nelson Elem School,8901 N Ozanam Ave,Niles,60714-1711,IL,42.043647,-87.820433,1,rooftop,8901,N Ozanam Ave,,,Niles,IL,Cook County,60714,US,Cook
Apollo Elem School,10100 Dee Rd,Des Plaines,60016-1512,IL,42.065168,-87.856653,1,range_interpolation,10100,Dee Rd,,,Des Plaines,IL,Cook County,60016,US,TIGER/Line® dataset from the US Census Bureau
Chute Middle School,1400 Oakton St,Evanston,60202-2721,IL,42.026489,-87.692431,1,rooftop,1400,Oakton St,,,Evanston,IL,Cook County,60202,US,City of Evanston
Dr Bessie Rhodes Sch Global Studies,3701 Davis St,Skokie,60076-1744,IL,42.045942,-87.721901,1,rooftop,3701,Davis St,,,Skokie,IL,Cook County,60076,US,Cook
Dawes Elementary School,440 Dodge Ave,Evanston,60202-3254,IL,42.025788,-87.699965,1,rooftop,440,Dodge Ave,,,Evanston,IL,Cook County,60202,US,City of Evanston
Oakton Elem School,436 Ridge Ave,Evanston,60202-2861,IL,42.026158,-87.685807,1,rooftop,436,Ridge Ave,,,Evanston,IL,Cook County,60202,US,City of Evanston
Park School,828 Main St,Evanston,60202-1706,IL,42.033796,-87.683283,1,rooftop,828,Main St,,,Evanston,IL,Cook County,60202,US,City of Evanston
Old Orchard Jr High School,9310 Kenton Ave,Skokie,60076-1336,IL,42.050908,-87.742994,1,rooftop,9310,Kenton Ave,,,Skokie,IL,Cook County,60076,US,Cook
Highland Elementary School,9700 Crawford Ave,Skokie,60076-1106,IL,42.057497,-87.728186,1,rooftop,9700,Crawford Ave,,,Skokie,IL,Cook County,60076,US,Cook
Devonshire Elem School,9040 Kostner Ave,Skokie,60076-1657,IL,42.045105,-87.737836,1,rooftop,9040,Kostner Ave,,,Skokie,IL,Cook County,60076,US,Cook
Madison Elem School,5100 Madison St,Skokie,60077-2554,IL,42.032321,-87.755207,1,rooftop,5100,Madison St,,,Skokie,IL,Cook County,60077,US,Cook
Thomas Edison Elem School,8200 Gross Point Rd,Morton Grove,60053-3534,IL,42.030189,-87.765452,1,rooftop,8200,Gross Point Rd,,,Morton Grove,IL,Cook County,60053,US,Cook
Nachusa Lutheran Childrens Home,PO Box 100,Nachusa,61057-0100,IL,41.831577,-89.38957,0.33,place,100,PO Box,,,Nachusa,IL,Lee County,61057,US,TIGER/Line® dataset from the US Census Bureau
Palatine High School,1111 N Rohlwing Rd,Palatine,60074-3777,IL,42.132468,-88.021941,1,rooftop,1111,N Rohlwing Rd,,,Palatine,IL,Cook County,60074,US,Cook
ChildBridge Center for Education,1760 W Algonquin Rd,Palatine,60067-4791,IL,42.083039,-88.084672,1,rooftop,1760,W Algonquin Rd,,,Palatine,IL,Cook County,60067,US,Cook
Little City Foundation - Foglia Home,1570 Little City Dr,Palatine,,IL,42.0858,-88.08523,0.82,nearest_rooftop_match,1610,Little City Dr,,,Palatine,IL,Cook County,60067,US,Cook
Little City Foundation - Larry's Home,1580 Little City Dr,Palatine,,IL,42.0858,-88.08523,0.84,nearest_rooftop_match,1610,Little City Dr,,,Palatine,IL,Cook County,60067,US,Cook
Little City Foundation - Pine Home,1630 Little City Dr,Palatine,,IL,42.084972,-88.084765,1,rooftop,1630,Little City Dr,,,Palatine,IL,Cook County,60067,US,Cook
Little City Foundation - Coleman Home,1560 Little City Drive,Palatin,,IL,42.0858,-88.08523,0.8,nearest_rooftop_match,1610,Little City Dr,,,Palatine,IL,Cook County,60067,US,Cook
Little City Foundation Marios Home,1550 Little City Dr.,Palatine,,IL,42.0858,-88.08523,0.68,nearest_rooftop_match,1610,Little City Dr,,,Palatine,IL,Cook County,60067,US,Cook
Little City Foundation - SP,1645 Little City Dr,Palatine,,IL,42.08452,-88.084063,1,rooftop,1645,Little City Dr,,,Palatine,IL,Cook County,60067,US,Cook
Little City Foundation - BI,1640 Little City Dr,Palatine,,IL,42.084604,-88.084796,1,rooftop,1640,Little City Dr,,,Palatine,IL,Cook County,60067,US,Cook
Timber Ridge School,201 S Evanston Ave,Arlington Heights,60004-6832,IL,42.079685,-87.952188,1,rooftop,201,S Evanston Ave,,,Arlington Heights,IL,Cook County,60004,US,Cook
Kirk School,520 S Plum Grove Rd,Palatine,60067-6933,IL,42.100856,-88.044744,1,rooftop,520,S Plum Grove Rd,,,Palatine,IL,Cook County,60067,US,Cook
West 40 Reg Safe Sch Middle Prg,605 N Hillside Ave,Hillside,60162-1037,IL,41.88091,-87.907806,1,rooftop,605,N Hillside Ave,,,Hillside,IL,Cook County,60162,US,Cook
Harbor Academy Reg Safe Sch Prg,605 N Hillside Ave,Hillside,60162-1037,IL,41.88091,-87.907806,1,rooftop,605,N Hillside Ave,,,Hillside,IL,Cook County,60162,US,Cook
John F Kennedy Elem School,3945 Wehrman Ave,Schiller Park,60176-1814,IL,41.95012,-87.877579,1,rooftop,3945,Wehrman Ave,,,Schiller Park,IL,Cook County,60176,US,Cook
Lincoln Middle School,9750 Soreng Ave,Schiller Park,60176-2105,IL,41.951343,-87.869673,1,range_interpolation,9750,Soreng Ave,,,Schiller Park,IL,Cook County,60176,US,TIGER/Line® dataset from the US Census Bureau
Washington Elem School,4835 Michigan Ave,Schiller Park,60176-1111,IL,41.966947,-87.868403,1,range_interpolation,4835,Michigan Ave,,,Schiller Park,IL,Cook County,60176,US,TIGER/Line® dataset from the US Census Bureau
Roy Elem School,533 N Roy Ave,Northlake,60164-1762,IL,41.919025,-87.898408,1,rooftop,533,N Roy Ave,,,Northlake,IL,Cook County,60164,US,Cook
Mannheim Middle School,2600 Hyde Park Ave,Melrose Park,60164-1536,IL,41.925397,-87.887899,1,rooftop,2600,Hyde Park Ave,,,Melrose Park,IL,Cook County,60164,US,Cook
Westdale Elem School,99 Diversey Ave,Northlake,60164-1401,IL,41.928491,-87.90618,1,rooftop,99,Diversey Ave,,,Melrose Park,IL,Cook County,60164,US,Cook
Scott Elementary School,2250 Scott St,Melrose Park,60164-2008,IL,41.920439,-87.875229,1,rooftop,2250,Scott St,,,Melrose Park,IL,Cook County,60164,US,Cook
Enger School,10401 Grand Ave,Franklin Park,60131-2208,IL,41.929655,-87.885537,1,rooftop,10401,Grand Ave,,,Franklin Park,IL,Cook County,60131,US,Cook
Passow Elementary School,2838 Calwagner St,Franklin Park,60131-2649,IL,41.930368,-87.86784,1,range_interpolation,2838,Calwagner St,,,Franklin Park,IL,Cook County,60131,US,TIGER/Line® dataset from the US Census Bureau
Hester Jr High School,2836 Gustav St,Franklin Park,60131-2905,IL,41.930838,-87.866928,1,rooftop,2836,Gustav St,,,Franklin Park,IL,Cook County,60131,US,Cook
Dan H Pietrini Elem School,9750 Fullerton Ave,Franklin Park,60131-3207,IL,41.92238,-87.869386,1,range_interpolation,9750,Fullerton Ave,,,Franklin Park,IL,Cook County,60131,US,TIGER/Line® dataset from the US Census Bureau
Rhodes Elem School,8931 Fullerton Ave,River Grove,60171-1810,IL,41.921793,-87.846532,1,rooftop,8931,Fullerton Ave,,,River Grove,IL,Cook County,60171,US,Cook
River Grove Elem School,2650 Thatcher Ave,River Grove,60171-1650,IL,41.928171,-87.836518,1,rooftop,2650,Thatcher Ave,,,River Grove,IL,Cook County,60171,US,Cook
MacArthur Middle School,1310 N Wolf Rd,Berkeley,60163-1220,IL,41.890786,-87.903456,1,range_interpolation,1310,N Wolf Rd,,,Berkeley,IL,Cook County,60163,US,TIGER/Line® dataset from the US Census Bureau
Sunnyside Intermediate School,5412 Saint Charles Rd,Berkeley,60163-1244,IL,41.889146,-87.903477,1,range_interpolation,5412,St Charles Rd,,,Berkeley,IL,Cook County,60163,US,TIGER/Line® dataset from the US Census Bureau
Whittier Primary School,338 Whitehall Ave,Northlake,60164-1864,IL,41.912455,-87.891666,1,range_interpolation,338,Whitehall Ave,,,Northlake,IL,Cook County,60164,US,TIGER/Line® dataset from the US Census Bureau
Jefferson Primary School,225 46th Ave,Bellwood,60104-1315,IL,41.888602,-87.889533,1,range_interpolation,225,46th Ave,,,Bellwood,IL,Cook County,60104,US,TIGER/Line® dataset from the US Census Bureau
J W Riley Intermediate School,123 S Wolf Rd,Northlake,60164-2353,IL,41.904475,-87.902782,1,rooftop,123,S Wolf Rd,,,Northlake,IL,Cook County,60164,US,Cook
Northlake Middle School,202 S Lakewood Ave,Northlake,60164-2581,IL,41.90336,-87.902055,1,rooftop,202,S Lakewood Ave,,,Northlake,IL,Cook County,60164,US,Cook
Grant Primary,1801 N 36th Ave,Stone Park,60165-1031,IL,41.905762,-87.877307,1,rooftop,1801,N 36th Ave,,,Stone Park,IL,Cook County,60165,US,Cook
Thurgood Marshall Elem School,2501 Oak St,Bellwood,60104-1537,IL,41.886134,-87.864253,1,rooftop,2501,Oak St,,,Bellwood,IL,Cook County,60104,US,Cook
Lincoln Elementary School,3420 Jackson St,Bellwood,60104-2419,IL,41.873996,-87.874851,1,rooftop,3420,Jackson St,,,Bellwood,IL,Cook County,60104,US,Cook
McKinley Elem School,3317 Butterfield Rd,Bellwood,60104-1450,IL,41.885206,-87.874156,1,rooftop,3317,Butterfield Rd,,,Bellwood,IL,Cook County,60104,US,Cook
Grant Elem School,1300 N 34th Ave,Melrose Park,60160-2835,IL,41.898509,-87.875443,1,rooftop,1300,N 34th Ave,,,Melrose Park,IL,Cook County,60160,US,Cook
Roosevelt Middle School,2500 Oak St,Bellwood,60104-1525,IL,41.885268,-87.86457,1,rooftop,2500,Oak St,,,Bellwood,IL,Cook County,60104,US,Cook
Jane Addams Elem School,910 Division St,Melrose Park,60160-2235,IL,41.900455,-87.845381,1,rooftop,910,Division St,,,Melrose Park,IL,Cook County,60160,US,Cook
Roosevelt Elem School,1927 S 15th Ave,Broadview,60155-3005,IL,41.8691,-87.850633,1,range_interpolation,1927,S 15th Ave,,,Broadview,IL,Cook County,60155,US,TIGER/Line® dataset from the US Census Bureau
Washington Dual Language Academy,1111 Washington Blvd,Maywood,60153-1559,IL,41.882595,-87.846493,1,range_interpolation,1111,Washington Blvd,,,Maywood,IL,Cook County,60153,US,TIGER/Line® dataset from the US Census Bureau
Emerson Elem School,311 Washington Blvd,Maywood,60153-2154,IL,41.882463,-87.837198,1,range_interpolation,311,Washington Blvd,,,Maywood,IL,Cook County,60153,US,TIGER/Line® dataset from the US Census Bureau
Garfield Elem School,1514 S 9th Ave,Maywood,60153-1951,IL,41.874164,-87.844107,1,rooftop,1514,S 9th Ave,,,Maywood,IL,Cook County,60153,US,Cook
Lincoln Elem School,811 Chicago Ave,Maywood,60153-1172,IL,41.893746,-87.843722,0.9,rooftop,811,W Chicago Ave,,,Maywood,IL,Cook County,60153,US,Cook
Irving Middle School,805 S 17th Ave,Maywood,60153-1701,IL,41.88025,-87.853572,1,rooftop,805,S 17th Ave,,,Maywood,IL,Cook County,60153,US,Cook
Melrose Park Elem School,1715 W Lake St,Melrose Park,60160-3818,IL,41.892861,-87.854731,1,range_interpolation,1715,W Lake St,,,Melrose Park,IL,Cook County,60160,US,TIGER/Line® dataset from the US Census Bureau
Stevenson Middle School,1630 N 20th Ave,Melrose Park,60160-1904,IL,41.903686,-87.858757,1,rooftop,1630,N 20th Ave,,,Melrose Park,IL,Cook County,60160,US,Cook
Forest Park Middle School,925 Beloit Ave,Forest Park,60130-2301,IL,41.869837,-87.812119,1,rooftop,925,Beloit Ave,,,Forest Park,IL,Cook County,60130,US,Cook
Lindop Elem School,2400 S 18th Ave,Broadview,60155-3930,IL,41.859655,-87.854394,1,rooftop,2400,S 18th Ave,,,Broadview,IL,Cook County,60155,US,Cook
Hillside Elem School,4804 Harrison St,Hillside,60162-1601,IL,41.870504,-87.903459,1,rooftop,4804,Harrison St,,,Hillside,IL,Cook County,60162,US,Cook
Jefferson Elem School,7035 16th St,Berwyn,60402-1369,IL,41.858145,-87.800833,1,rooftop,7035,16th St,,,Berwyn,IL,Cook County,60402,US,Cook
Karel Havlicek Elem School,6401 15th St,Berwyn,60402-1133,IL,41.860165,-87.784398,1,rooftop,6401,15th St,,,Berwyn,IL,Cook County,60402,US,Cook
Prairie Oak School,1427 Oak Park Ave,Berwyn,60402-1229,IL,41.861033,-87.79348,1,range_interpolation,1427,Oak Park Ave,,,Berwyn,IL,Cook County,60402,US,TIGER/Line® dataset from the US Census Bureau
Lincoln Middle School,6432 16th St,Berwyn,60402-1358,IL,41.857515,-87.785589,1,rooftop,6432,16th St,,,Berwyn,IL,Cook County,60402,US,Cook
Abe Lincoln Elem School,3545 S 61st Ave,Cicero,60804-4145,IL,41.828107,-87.775385,1,range_interpolation,3545,S 61st Ave,,,Cicero,IL,Cook County,60804,US,TIGER/Line® dataset from the US Census Bureau
Columbus West Elementary School,5425 W 31st St,Cicero,60804-3989,IL,41.836287,-87.759843,1,range_interpolation,5425,W 31st St,,,Cicero,IL,Cook County,60804,US,TIGER/Line® dataset from the US Census Bureau
District 99 Early Childhood Center,5330 W 35th St,Cicero,60804-4409,IL,41.829322,-87.757237,1,range_interpolation,5330,W 35th St,,,Cicero,IL,Cook County,60804,US,TIGER/Line® dataset from the US Census Bureau
McKinley Elem School,5900 W 14th St,Cicero,60804-1052,IL,41.861993,-87.771569,1,range_interpolation,5900,W 14th St,,,Cicero,IL,Cook County,60804,US,TIGER/Line® dataset from the US Census Bureau
Cicero East Elem School,3003 S 50Th Ct,Cicero,60804-3514,IL,41.838312,-87.750286,1,range_interpolation,3003,S 50th Ct,,,Cicero,IL,Cook County,60804,US,TIGER/Line® dataset from the US Census Bureau
Columbus  East Elem School,3100 S 54th Ave,Cicero,60804-3953,IL,41.836305,-87.758589,1,range_interpolation,3100,S 54th Ave,,,Cicero,IL,Cook County,60804,US,TIGER/Line® dataset from the US Census Bureau
Drexel Elem School,5407 W 36th St,Cicero,60804-4432,IL,41.827175,-87.758683,1,range_interpolation,5407,W 36th St,,,Cicero,IL,Cook County,60804,US,TIGER/Line® dataset from the US Census Bureau
Liberty Elem School,4946 W 13th St,Cicero,60804-1416,IL,41.864151,-87.748718,1,range_interpolation,4946,W 13th St,,,Cicero,IL,Cook County,60804,US,TIGER/Line® dataset from the US Census Bureau
Sherlock Elem School,5347 W 22nd Pl,Cicero,60804-2805,IL,41.850027,-87.757593,1,range_interpolation,5347,W 22nd Pl,,,Cicero,IL,Cook County,60804,US,TIGER/Line® dataset from the US Census Bureau
T Roosevelt Elem School,1500 S 50th Ave,Cicero,60804-1544,IL,41.860187,-87.749463,1,range_interpolation,1500,S 50th Ave,,,Cicero,IL,Cook County,60804,US,TIGER/Line® dataset from the US Census Bureau
Warren Park School,1225 S 60th Ct,Cicero,60804-1006,IL,41.864986,-87.775343,1,range_interpolation,1225,S 60th Ct,,,Cicero,IL,Cook County,60804,US,TIGER/Line® dataset from the US Census Bureau
Goodwin Elementary School,2625 S Austin Blvd,Cicero,60804-3139,IL,41.842586,-87.773156,1,rooftop,2625,S Austin Blvd,,,Cicero,IL,Cook County,60804,US,Cook
Woodrow Wilson Elem School,2310 S 57th Ave,Cicero,60804-2638,IL,41.848677,-87.766453,1,range_interpolation,2310,S 57th Ave,,,Cicero,IL,Cook County,60804,US,TIGER/Line® dataset from the US Census Bureau
Daniel Burnham Elem School,1630 S 59th Ave,Cicero,60804-1742,IL,41.857734,-87.771609,1,range_interpolation,1630,S 59th Ave,,,Cicero,IL,Cook County,60804,US,TIGER/Line® dataset from the US Census Bureau
Cicero West Elementary School,4937 W 23rd St,Cicero,60804-2433,IL,41.849254,-87.747491,1,range_interpolation,4937,W 23rd St,,,Cicero,IL,Cook County,60804,US,TIGER/Line® dataset from the US Census Bureau
Unity Jr High School,2115 S 54th Ave,Cicero,60804-2209,IL,41.852055,-87.758878,1,range_interpolation,2115,S 54th Ave,,,Cicero,IL,Cook County,60804,US,TIGER/Line® dataset from the US Census Bureau
Heritage Middle School,6850 31st St,Berwyn,60402-3058,IL,41.835647,-87.795401,1,rooftop,6850,31st St,,,Berwyn,IL,Cook County,60402,US,Cook
Emerson Elem School,6850 31st St,Berwyn,60402-3058,IL,41.835647,-87.795401,1,rooftop,6850,31st St,,,Berwyn,IL,Cook County,60402,US,Cook
Pershing Elem School,6537 37th St,Berwyn,60402-4080,IL,41.825353,-87.786945,1,rooftop,6537,37th St,,,Berwyn,IL,Cook County,60402,US,Cook
Piper School,2435 Kenilworth Ave,Berwyn,60402-2546,IL,41.84551,-87.795299,1,rooftop,2435,Kenilworth Ave,,,Berwyn,IL,Cook County,60402,US,Cook
Irving Elem School,3501 Clinton Ave,Berwyn,60402-3324,IL,41.828075,-87.7958,1,rooftop,3501,Clinton Ave,,,Berwyn,IL,Cook County,60402,US,Cook
Freedom Middle School,3016 Ridgeland Ave,Berwyn,60402-2700,IL,41.836951,-87.7837,1,rooftop,3016,Ridgeland Ave,,,Berwyn,IL,Cook County,60402,US,Cook
Hiawatha Elem School,6539 26th St,Berwyn,60402-2637,IL,41.843749,-87.787923,1,rooftop,6539,26th St,,,Berwyn,IL,Cook County,60402,US,Cook
Komensky Elem School,2515 Cuyler Ave,Berwyn,60402-2619,IL,41.844577,-87.78176,1,rooftop,2515,Cuyler Ave,,,Berwyn,IL,Cook County,60402,US,Cook
Home Elem School,4400 Home Ave,Stickney,60402-4316,IL,41.811355,-87.797489,1,rooftop,4400,Home Ave,,,Berwyn,IL,Cook County,60402,US,Cook
Lincoln Elem School,4300 Grove Ave,Brookfield,60513-2580,IL,41.812534,-87.841405,1,rooftop,4300,Grove Ave,,,Brookfield,IL,Cook County,60513,US,Cook
Edison Elem School,4100 Scoville Ave,Stickney,60402-4428,IL,41.817045,-87.78668,1,rooftop,4100,Scoville Ave,,,Berwyn,IL,Cook County,60402,US,Cook
Costello School,4632 Clyde Ave,Lyons,60534-1758,IL,41.806871,-87.827964,1,range_interpolation,4632,Clyde Ave,,,Lyons,IL,Cook County,60534,US,TIGER/Line® dataset from the US Census Bureau
Washington Middle School,8101 Ogden Ave,Lyons,60534-1700,IL,41.81718,-87.8251,1,range_interpolation,8101,Ogden Ave,,,Lyons,IL,Cook County,60534,US,TIGER/Line® dataset from the US Census Bureau
J W Robinson Jr Elem School,4431 Gage Ave,Lyons,60534-1929,IL,41.810507,-87.81427,1,rooftop,4431,Gage Ave,,,Lyons,IL,Cook County,60534,US,Cook
Ideal Elem School,9901 W 58th St,Countryside,60525-5122,IL,41.784513,-87.865726,1,rooftop,9901,W 58th St,,,Countryside,IL,Cook County,60525,US,Cook
Hodgkins Elem School,6516 Kane Ave,Hodgkins,60525-7618,IL,41.771755,-87.853394,1,range_interpolation,6516,Kane Ave,,,Hodgkins,IL,Cook County,60525,US,TIGER/Line® dataset from the US Census Bureau
J Sterling Morton West High Sch,2400 Home Ave,Berwyn,60402-2110,IL,41.846395,-87.799961,1,rooftop,2400,Home Ave,,,Berwyn,IL,Cook County,60402,US,Cook
J Sterling Morton East High Sch,2423 S Austin Blvd,Cicero,60804-2616,IL,41.846451,-87.773069,1,rooftop,2423,S Austin Blvd,,,Cicero,IL,Cook County,60804,US,Cook
J Sterling Morton Alternative Sch,1874 S 54th Ave,Cicero,60804-1814,IL,41.854982,-87.759259,1,range_interpolation,1874,S 54th Ave,,,Cicero,IL,Cook County,60804,US,TIGER/Line® dataset from the US Census Bureau
J Sterling Morton Freshman Cntr,1801 S 55th Ave,Cicero,60804-1819,IL,41.855921,-87.761439,1,range_interpolation,1801,S 55th Ave,,,Cicero,IL,Cook County,60804,US,TIGER/Line® dataset from the US Census Bureau
Proviso Math and Science Academy,8601 Roosevelt Rd,Forest Park,60130-2532,IL,41.865109,-87.832597,1,rooftop,8601,Roosevelt Rd,,,Forest Park,IL,Cook County,60130,US,Cook
Proviso West High School,4701 Harrison St,Hillside,60162-1616,IL,41.867993,-87.900743,1,rooftop,4701,Harrison St,,,Hillside,IL,Cook County,60162,US,Cook
Proviso East High School,807 S 1st Ave,Maywood,60153-2307,IL,41.880456,-87.833287,1,rooftop,807,S 1st Ave,,,Maywood,IL,Cook County,60153,US,Cook
East Leyden High School,3400 Rose St,Franklin Park,60131-2155,IL,41.940554,-87.86569,1,range_interpolation,3400,Rose St,,,Franklin Park,IL,Cook County,60131,US,TIGER/Line® dataset from the US Census Bureau
West Leyden High School,1000 N Wolf Rd,Northlake,60164-1438,IL,41.927222,-87.905658,1,rooftop,1000,N Wolf Rd,,,Northlake,IL,Cook County,60164,US,Cook
John Mills Elem School,2824 N 76th Ave,Elmwood Park,60707-1438,IL,41.931116,-87.816426,1,range_interpolation,2824,N 76th Ave,,,Elmwood Park,IL,Cook County,60707,US,TIGER/Line® dataset from the US Census Bureau
PAEC Academy,1640 Newcastle Ave,Westchester,60154-4447,IL,41.855042,-87.875325,1,rooftop,1640,Newcastle Ave,,,Westchester,IL,Cook County,60154,US,Cook
PAEC Alternative Elementary,1636 S 10th Ave,Maywood,60153-1978,IL,41.872275,-87.844931,1,range_interpolation,1636,S 10th Ave,,,Maywood,IL,Cook County,60153,US,TIGER/Line® dataset from the US Census Bureau
PAEC Alternative High School,1636 S 10th Ave,Maywood,60153-1978,IL,41.872275,-87.844931,1,range_interpolation,1636,S 10th Ave,,,Maywood,IL,Cook County,60153,US,TIGER/Line® dataset from the US Census Bureau
Proviso Area Exceptional Child,1000 Van Buren St,Maywood,60153-1970,IL,41.873472,-87.847267,1,range_interpolation,1000,Van Buren St,,,Maywood,IL,Cook County,60153,US,TIGER/Line® dataset from the US Census Bureau
W W Walker Elem School,7735 W 66th Pl,Bedford Park,60501-1903,IL,41.770751,-87.814826,1,rooftop,7735,W 66th Pl,,,Summit Argo,IL,Cook County,60501,US,Cook
Heritage Middle School,6021 S 74th Ave,Summit,60501-1500,IL,41.782877,-87.805035,1,rooftop,6021,S 74th Ave,,,Summit Argo,IL,Cook County,60501,US,Cook
Dr Donald Wharton Elem School,7555 W 64th St,Summit,60501-1925,IL,41.774716,-87.809704,1,rooftop,7555,W 64th St,,,Summit Argo,IL,Cook County,60501,US,Cook
Walsh Elem School,5640 S 75th Ave,Summit,60501-1346,IL,41.788679,-87.808927,1,rooftop,5640,S 75th Ave,,,Summit Argo,IL,Cook County,60501,US,Cook
Otis P Graves Elem School,6021 S 74th Ave,Summit,60501-1500,IL,41.782877,-87.805035,1,rooftop,6021,S 74th Ave,,,Summit Argo,IL,Cook County,60501,US,Cook
Willow Springs Elem School,8345 Archer Ave,Willow Springs,60480-1402,IL,41.738362,-87.865269,1,range_interpolation,8345,Archer Ave,,,Willow Springs,IL,Cook County,60480,US,TIGER/Line® dataset from the US Census Bureau
Frank A Brodnicki Elem School,8641 W 75th St,Justice,60458-1114,IL,41.75359,-87.836078,1,rooftop,8641,W 75th St,,,Justice,IL,Cook County,60458,US,Cook
Robina Lyle Elementary School,7801 W 75th St,Bridgeview,60455-1288,IL,41.754512,-87.814977,1,rooftop,7801,W 75th St,,,Bridgeview,IL,Cook County,60455,US,Cook
Bridgeview Elem School,7800 S Thomas Ave,Bridgeview,60455-1524,IL,41.749028,-87.806358,1,rooftop,7800,Thomas Ave,,,Bridgeview,IL,Cook County,60455,US,Cook
George T Wilkins Elem School,8001 S 82nd Ave,Justice,60458-1569,IL,41.744827,-87.822638,1,rooftop,8001,S 82nd Ave,,,Justice,IL,Cook County,60458,US,Cook
Charles J Sahs Elem School,5001 S Long Ave,Chicago,60638-1733,IL,41.802086,-87.757682,1,range_interpolation,5001,S Long Ave,,,Chicago,IL,Cook County,60638,US,TIGER/Line® dataset from the US Census Bureau
Liberty Junior High School,5900 W 81st St,Burbank,60459-1900,IL,41.745653,-87.767798,1,rooftop,5900,W 81st St,,,Burbank,IL,Cook County,60459,US,Cook
Edward J Tobin Elem School,8501 Narragansett Ave,Burbank,60459-2474,IL,41.73765,-87.779823,1,range_interpolation,8501,Narragansett Ave,,,Burbank,IL,Cook County,60459,US,TIGER/Line® dataset from the US Census Bureau
Harry E Fry School,7805 Mobile Ave,Burbank,60459-1109,IL,41.750257,-87.77771,1,range_interpolation,7805,Mobile Ave,,,Burbank,IL,Cook County,60459,US,TIGER/Line® dataset from the US Census Bureau
Luther Burbank Elem School,8235 Linder Ave,Burbank,60459-2066,IL,41.742735,-87.758001,1,range_interpolation,8235,Linder Ave,,,Burbank,IL,Cook County,60459,US,TIGER/Line® dataset from the US Census Bureau
Richard Byrd Elementary School,8259 Lavergne Ave,Burbank,60459-2794,IL,41.742516,-87.745841,1,range_interpolation,8259,Lavergne Ave,,,Burbank,IL,Cook County,60459,US,TIGER/Line® dataset from the US Census Bureau
F B Mccord Elem School,8450 Nashville Ave,Burbank,60459-2335,IL,41.738301,-87.78487,1,range_interpolation,8450,Nashville Ave,,,Burbank,IL,Cook County,60459,US,TIGER/Line® dataset from the US Census Bureau
Maddock Elementary School,8258 Sayre Ave,Burbank,60459-1631,IL,41.741616,-87.79474,1,range_interpolation,8258,Sayre Ave,,,Burbank,IL,Cook County,60459,US,TIGER/Line® dataset from the US Census Bureau
J B Kennedy Elem School,7644 Central Ave,Burbank,60459-1308,IL,41.753335,-87.761667,0.9,rooftop,7644,S Central Ave,,,Burbank,IL,Cook County,60459,US,Cook
H H Conrady Jr High School,7950 W 97th St,Hickory Hills,60457-2327,IL,41.715517,-87.816471,1,rooftop,7950,W 97th St,,,Hickory Hills,IL,Cook County,60457,US,Cook
Oak Ridge Elem School,8791 W 103rd St,Palos Hills,60465-1633,IL,41.702495,-87.835914,1,rooftop,8791,W 103rd St,,,Palos Hills,IL,Cook County,60465,US,Cook
Dorn Primary Center,7840 W 92nd St,Hickory Hills,60457-2012,IL,41.724227,-87.814133,1,range_interpolation,7840,W 92nd St,,,Hickory Hills,IL,Cook County,60457,US,TIGER/Line® dataset from the US Census Bureau
Glen Oaks Elem School,9045 S 88th Ave,Hickory Hills,60457-1252,IL,41.726112,-87.836623,1,rooftop,9045,S 88th Ave,,,Hickory Hills,IL,Cook County,60457,US,Cook
Dr Kenneth M Sorrick School,7825 W 103rd St,Palos Hills,60465-1676,IL,41.702938,-87.813827,1,rooftop,7825,W 103rd St,,,Palos Hills,IL,Cook County,60465,US,Cook
Columbus Manor Elem School,9700 Mayfield Ave,Oak Lawn,60453-3638,IL,41.715905,-87.767546,1,range_interpolation,9700,Mayfield Ave,,,Oak Lawn,IL,Cook County,60453,US,TIGER/Line® dataset from the US Census Bureau
Harnew Elem School,9101 Meade Ave,Oak Lawn,60453-1570,IL,41.727061,-87.772819,1,range_interpolation,9101,Meade Ave,,,Oak Lawn,IL,Cook County,60453,US,TIGER/Line® dataset from the US Census Bureau
Simmons Middle School,6450 W 95th St,Oak Lawn,60453-2262,IL,41.720567,-87.782202,1,rooftop,6450,W 95th St,,,Oak Lawn,IL,Cook County,60453,US,Cook
George W Lieb Elem School,9101 Pembroke Ln,Bridgeview,60455-2221,IL,41.72618,-87.79089,1,rooftop,9101,Pembroke Ln,,,Bridgeview,IL,Cook County,60455,US,Cook
Ernest F Kolb Elem School,9620 Normandy Ave,Oak Lawn,60453-2131,IL,41.717692,-87.787748,0.9,rooftop,9620,S Normandy Ave,,,Oak Lawn,IL,Cook County,60453,US,Cook
J Covington Elem School,9130 S 52nd Ave,Oak Lawn,60453-1742,IL,41.726061,-87.751664,1,rooftop,9130,S 52nd Ave,,,Oak Lawn,IL,Cook County,60453,US,Cook
Hometown Elem School,8870 S Duffy Ave,Hometown,60456-1140,IL,41.731034,-87.73195,1,rooftop,8870,S Duffy Ave,,,Hometown,IL,Cook County,60456,US,Cook
Northeast Elem School,9058 S California Ave,Evergreen Park,60805-1300,IL,41.728723,-87.692595,1,rooftop,9058,S California Ave,,,Evergreen Park,IL,Cook County,60805,US,Cook
Stony Creek Elem School,11700 S Kolin Ave,Alsip,60803-2141,IL,41.680312,-87.728223,1,range_interpolation,11700,S Kolin Ave,,,Alsip,IL,Cook County,60803,US,TIGER/Line® dataset from the US Census Bureau
Prairie Jr High School,11910 S Kostner Ave,Alsip,60803-2307,IL,41.676401,-87.729593,1,range_interpolation,11910,S Kostner Ave,,,Alsip,IL,Cook County,60803,US,TIGER/Line® dataset from the US Census Bureau
Lane Elem School,4600 W 123rd St,Alsip,60803-2522,IL,41.668993,-87.733452,1,range_interpolation,4600,W 123rd St,,,Alsip,IL,Cook County,60803,US,TIGER/Line® dataset from the US Census Bureau
Worth Elem School,11158 S Oak Park Ave,Worth,60482-2100,IL,41.689102,-87.788644,1,range_interpolation,11158,S Oak Park Ave,,,Worth,IL,Cook County,60482,US,TIGER/Line® dataset from the US Census Bureau
Worth Jr High School,11151 S New England Ave,Worth,60482-1808,IL,41.689342,-87.791491,1,range_interpolation,11151,S New England Ave,,,Worth,IL,Cook County,60482,US,TIGER/Line® dataset from the US Census Bureau
Worthwoods Elem School,11000 S Oketo Ave,Worth,60482-1009,IL,41.69184,-87.802501,1,range_interpolation,11000,S Oketo Ave,,,Worth,IL,Cook County,60482,US,TIGER/Line® dataset from the US Census Bureau
Ridge Central Elem School,10800 Lyman Ave,Chicago Ridge,60415-2250,IL,41.695776,-87.771681,1,range_interpolation,10800,Lyman Ave,,,Chicago Ridge,IL,Cook County,60415,US,TIGER/Line® dataset from the US Census Bureau
Elden D Finley Jr High School,10835 Lombard Ave,Chicago Ridge,60415-2110,IL,41.695276,-87.773966,1,range_interpolation,10835,Lombard Ave,,,Chicago Ridge,IL,Cook County,60415,US,TIGER/Line® dataset from the US Census Bureau
Ridge Lawn Elementary School,5757 105th St,Chicago Ridge,60415-2087,IL,41.701671,-87.764192,1,range_interpolation,5757,105th St,,,Chicago Ridge,IL,Cook County,60415,US,TIGER/Line® dataset from the US Census Bureau
Care Program,5318 135th St,Crestwood,60445-1504,IL,41.647097,-87.750628,1,range_interpolation,5318,135th St,,,Midlothian,IL,Cook County,60445,US,TIGER/Line® dataset from the US Census Bureau
Eisenhower Cooperative,5318 135th St,Crestwood,60445-1504,IL,41.647097,-87.750628,1,range_interpolation,5318,135th St,,,Midlothian,IL,Cook County,60445,US,TIGER/Line® dataset from the US Census Bureau
Developmental Learning Pgm   DLP,14801 Turner Ave,Midlothian,60445-3628,IL,41.623762,-87.701325,1,range_interpolation,14801,Turner Ave,,,Midlothian,IL,Cook County,60445,US,TIGER/Line® dataset from the US Census Bureau
Nathan Hale Middle School,5220 135th St,Crestwood,60445-1502,IL,41.647139,-87.748203,1,range_interpolation,5220,135th St,,,Midlothian,IL,Cook County,60445,US,TIGER/Line® dataset from the US Census Bureau
Nathan Hale Intermediate,5312 135th St,Crestwood,60445-1504,IL,41.647102,-87.750514,1,range_interpolation,5312,135th St,,,Midlothian,IL,Cook County,60445,US,TIGER/Line® dataset from the US Census Bureau
Veterans Memorial Middle Sch,12320 Greenwood Ave,Blue Island,60406-1558,IL,41.669358,-87.682891,1,range_interpolation,12320,Greenwood Ave,,,Blue Island,IL,Cook County,60406,US,TIGER/Line® dataset from the US Census Bureau
Nathan Hale Primary School,5324 135th St,Crestwood,60445-1504,IL,41.647092,-87.750743,1,range_interpolation,5324,135th St,,,Midlothian,IL,Cook County,60445,US,TIGER/Line® dataset from the US Census Bureau
Whittier Elementary School,13043 Maple Ave,Blue Island,60406-2338,IL,41.656107,-87.684684,1,range_interpolation,13043,Maple Ave,,,Blue Island,IL,Cook County,60406,US,TIGER/Line® dataset from the US Census Bureau
Paul Revere Intermediate School,12331 Gregory St,Blue Island,60406-1630,IL,41.669161,-87.677614,1,rooftop,12331,Gregory St,,,Blue Island,IL,Cook County,60406,US,Cook
George Washington Elementary Sch,12545 S Homan Ave,Alsip,60803-4114,IL,41.6646,-87.704856,0.9,range_interpolation,12545,S Homan Ave,,,Alsip,IL,Cook County,60803,US,TIGER/Line® dataset from the US Census Bureau
Lincoln Elem School,2140 Broadway St,Blue Island,60406-3051,IL,41.651266,-87.674775,1,rooftop,2140,Broadway St,,,Blue Island,IL,Cook County,60406,US,Cook
Everett F Kerr Middle School,12915 Maple Ave,Blue Island,60406-2014,IL,41.658429,-87.684789,1,range_interpolation,12915,Maple Ave,,,Blue Island,IL,Cook County,60406,US,TIGER/Line® dataset from the US Census Bureau
Paul Revere Primary School,2300 123rd Pl,Blue Island,60406-1672,IL,41.668846,-87.676936,0.78,range_interpolation,2300,W 123rd Pl,,,Blue Island,IL,Cook County,60406,US,TIGER/Line® dataset from the US Census Bureau
Burr Oak Academy,1441 W 124th St,Calumet Park,60827-5831,IL,41.668612,-87.658035,1,range_interpolation,1441,W 124th St,,,Calumet Park,IL,Cook County,60827,US,TIGER/Line® dataset from the US Census Bureau
Burr Oak Elem School,1440 W 125th St,Calumet Park,60827-6025,IL,41.666801,-87.657513,1,range_interpolation,1440,W 125th St,,,Calumet Park,IL,Cook County,60827,US,TIGER/Line® dataset from the US Census Bureau
Calumet Elem School,1440 W Vermont Ave,Calumet Park,60827-6328,IL,41.659294,-87.657125,1,range_interpolation,1440,W Vermont Ave,,,Calumet Park,IL,Cook County,60827,US,TIGER/Line® dataset from the US Census Bureau
Gen George Patton Elem School,13700 S Stewart Ave,Riverdale,60827-1629,IL,41.646208,-87.631752,1,range_interpolation,13700,S Stewart Ave,,,Riverdale,IL,Cook County,60827,US,TIGER/Line® dataset from the US Census Bureau
Southwest Cook Coop Spec Ed,6020 151st St,Oak Forest,60452-1841,IL,41.619017,-87.767291,1,rooftop,6020,151st St,,,Oak Forest,IL,Cook County,60452,US,Cook
Spaulding School,14811 Turner Ave,Midlothian,60445-3628,IL,41.623439,-87.70093,1,rooftop,14811,Turner Ave,,,Midlothian,IL,Cook County,60445,US,Cook
Kolmar Elem School,4500 143rd St,Midlothian,60445-2612,IL,41.632796,-87.731744,1,range_interpolation,4500,143rd St,,,Midlothian,IL,Cook County,60445,US,TIGER/Line® dataset from the US Census Bureau
Springfield Elem School,14620 Springfield Ave,Midlothian,60445-2833,IL,41.626971,-87.715724,1,rooftop,14620,Springfield Ave,,,Midlothian,IL,Cook County,60445,US,Cook
Central Park Elem School,3621 151st St,Midlothian,60445-3701,IL,41.617685,-87.708216,1,rooftop,3621,151st St,,,Midlothian,IL,Cook County,60445,US,Cook
Turner Elem School,3847 W 135Th St,Crestwood,60418-3048,IL,41.647137,-87.71536,0.6,rooftop,3847,135th St,,,Robbins,IL,Cook County,60472,US,Cook
Childs Elem School,14123 S Lydia Ave,Robbins,60472-2255,IL,41.636212,-87.703882,0.8,rooftop,14123,Lydia Ave,,,Robbins,IL,Cook County,60472,US,Cook
Posen Elem School,14545 S California Ave,Posen,60469-1201,IL,41.62868,-87.688242,1,rooftop,14545,California Ave,,,Posen,IL,Cook County,60469,US,Cook
Gordon School,14100 S Harrison Ave,Posen,60469-1047,IL,41.63641,-87.68852,1,rooftop,14100,Harrison Ave,,,Posen,IL,Cook County,60469,US,Cook
Kellar School,14123 S Lydia Ave,Robbins,60472-2255,IL,41.636212,-87.703882,0.8,rooftop,14123,Lydia Ave,,,Robbins,IL,Cook County,60472,US,Cook
Primary Learning Center,3215 W 162Nd St,Markham,60428-5401,IL,41.594907,-87.695349,1,rooftop,3215,W 162nd St,,,Markham,IL,Cook County,60428,US,Cook
Nob Hill Elem School,3701 168th St,Country Club Hills,60478-2123,IL,41.58449,-87.707166,1,range_interpolation,3701,168th St,,,Country Club Hills,IL,Cook County,60478,US,TIGER/Line® dataset from the US Census Bureau
Markham Park Elem School,16239 Lawndale Ave,Markham,60428-4440,IL,41.594615,-87.706395,1,range_interpolation,16239,Lawndale Ave,,,Markham,IL,Cook County,60428,US,TIGER/Line® dataset from the US Census Bureau
Fieldcrest Elem School,4100 Wagman St,Oak Forest,60452-4342,IL,41.595601,-87.720951,1,rooftop,4100,Wagman St,,,Oak Forest,IL,Cook County,60452,US,Cook
Chateaux School,3600 Chambord Ln,Hazel Crest,60429-2247,IL,41.563934,-87.70304,1,rooftop,3600,Chambord Ln,,,Hazel Crest,IL,Cook County,60429,US,Cook
Highlands Elem School,3420 Laurel Ln,Hazel Crest,60429-1011,IL,41.580447,-87.701501,1,rooftop,3420,Laurel Ln,,,Hazel Crest,IL,Cook County,60429,US,Cook
Mae Jemison School,3450 W 177th St,Hazel Crest,60429-2002,IL,41.568865,-87.70134,1,rooftop,3450,W 177th St,,,Hazel Crest,IL,Cook County,60429,US,Cook
Prairie-Hills Junior High School,16315 Richmond,Markham,,IL,41.593692,-87.68856,0.8,nearest_rooftop_match,16265,Richmond Ave,,,Markham,IL,Cook County,60428,US,Cook
Lincoln Elem School,14100 Honore Ave,Dixmoor,60426-1115,IL,41.633855,-87.662206,1,rooftop,14100,Honore Ave,,,Harvey,IL,Cook County,60426,US,Cook
Martin L King Elem School,14600 Seeley Ave,Dixmoor,60426-1052,IL,41.624291,-87.667188,1,rooftop,14600,Seeley Ave,,,Dixmoor,IL,Cook County,60426,US,Cook
Rosa L Parks Middle School,14700 Robey Ave,Dixmoor,60426-1526,IL,41.622497,-87.665695,1,range_interpolation,14700,Robey Ave,,,Harvey,IL,Cook County,60426,US,TIGER/Line® dataset from the US Census Bureau
Washington Junior High,13900 S School St,Riverdale,60827-1925,IL,41.642541,-87.629353,1,range_interpolation,13900,S School St,,,Riverdale,IL,Cook County,60827,US,TIGER/Line® dataset from the US Census Bureau
Riverdale School,325 W 142nd St,Riverdale,60827-2344,IL,41.63748,-87.631066,1,rooftop,325,W 142nd St,,,Riverdale,IL,Cook County,60827,US,Cook
Roosevelt Junior High School,111 W 146th St,Dolton,60419-1453,IL,41.629321,-87.625722,1,rooftop,111,W 146th St,,,Dolton,IL,Cook County,60419,US,Cook
Early Childhood Cntr,333 E 142Nd St,Dolton,60419-1109,IL,41.636988,-87.613412,1,range_interpolation,333,E 142nd St,,,Dolton,IL,Cook County,60419,US,TIGER/Line® dataset from the US Census Bureau
Lincoln Junior High School,14151 Lincoln Ave,Dolton,60419-1023,IL,41.638278,-87.604738,1,rooftop,14151,Lincoln Ave,,,Dolton,IL,Cook County,60419,US,Cook
Park Elementary School,14200 S Wentworth Ave,Riverdale,60827-2520,IL,41.636883,-87.62693,1,range_interpolation,14200,S Wentworth Ave,,,Riverdale,IL,Cook County,60827,US,TIGER/Line® dataset from the US Census Bureau
Franklin Elementary School,14701 Chicago Rd,Dolton,60419-2015,IL,41.627765,-87.60692,1,rooftop,14701,Chicago Rd,,,Dolton,IL,Cook County,60419,US,Cook
Roosevelt Elem School,111 W 146th St,Dolton,60419-1453,IL,41.629321,-87.625722,1,rooftop,111,W 146th St,,,Dolton,IL,Cook County,60419,US,Cook
Washington Elem School,13900 S School St,Riverdale,60827-1925,IL,41.642541,-87.629353,1,range_interpolation,13900,S School St,,,Riverdale,IL,Cook County,60827,US,TIGER/Line® dataset from the US Census Bureau
Lincoln Elementary School,14151 Lincoln Ave,Dolton,60419-1023,IL,41.638278,-87.604738,1,rooftop,14151,Lincoln Ave,,,Dolton,IL,Cook County,60419,US,Cook
Creative Communications Acad,1650 Pulaski Rd,Calumet City,60409-3828,IL,41.616524,-87.566609,1,rooftop,1650,Pulaski Rd,,,Calumet City,IL,Cook County,60409,US,Cook
S T E M Academy,1650 Pulaski Rd,Calumet City,60409-3828,IL,41.616524,-87.566609,1,rooftop,1650,Pulaski Rd,,,Calumet City,IL,Cook County,60409,US,Cook
School of Fine Arts,1650 Pulaski Rd,Calumet City,60409-3828,IL,41.616524,-87.566609,1,rooftop,1650,Pulaski Rd,,,Calumet City,IL,Cook County,60409,US,Cook
Berger-Vandenberg Elem School,14833 Avalon Ave,Dolton,60419-2452,IL,41.624899,-87.586735,1,range_interpolation,14833,Avalon Ave,,,Dolton,IL,Cook County,60419,US,TIGER/Line® dataset from the US Census Bureau
Carol Moseley Braun School,1655 153rd St,Calumet City,60409-3842,IL,41.616767,-87.565035,1,rooftop,1655,153rd St,,,Calumet City,IL,Cook County,60409,US,Cook
New Beginnings Learning Academy,15703 Clyde Ave,South Holland,60473-1920,IL,41.610411,-87.571779,1,rooftop,15703,Clyde Ave,,,South Holland,IL,Cook County,60473,US,Cook
Diekman Elem School,15121 Dorchester Ave,Dolton,60419-2941,IL,41.620538,-87.583047,1,range_interpolation,15121,Dorchester Ave,,,Dolton,IL,Cook County,60419,US,TIGER/Line® dataset from the US Census Bureau
Caroline Sibley Elem School,1550 Sibley Blvd,Calumet City,60409-2333,IL,41.623292,-87.562687,1,rooftop,1550,Sibley Blvd,,,Calumet City,IL,Cook County,60409,US,Cook
McKinley Elem School,850 E 170th St,South Holland,60473-3413,IL,41.586648,-87.595646,1,rooftop,850,E 170th St,,,South Holland,IL,Cook County,60473,US,Cook
McKinley Jr High School,16949 Cottage Grove Ave,South Holland,60473-3089,IL,41.586668,-87.596805,1,rooftop,16949,Cottage Grove Ave,,,South Holland,IL,Cook County,60473,US,Cook
Greenwood Elem School,16800 Greenwood Ave,South Holland,60473-3193,IL,41.58995,-87.591337,1,rooftop,16800,Greenwood Ave,,,South Holland,IL,Cook County,60473,US,Cook
Able Program,2206 W 167Th St,Markham,60428-5607,IL,41.586418,-87.670707,1,range_interpolation,2206,W 167th St,,,Markham,IL,Cook County,60428,US,TIGER/Line® dataset from the US Census Bureau
Echo School,350 W 154th St,South Holland,60473-1229,IL,41.616083,-87.626128,1,rooftop,350,W 154th St,,,South Holland,IL,Cook County,60473,US,Cook
Academy for Learning,306 E 144th St,Dolton,60419-1119,IL,41.633655,-87.613529,1,range_interpolation,306,E 144th St,,,Dolton,IL,Cook County,60419,US,TIGER/Line® dataset from the US Census Bureau
MacArthur/Echo Elementary,640 E 168th Pl,South Holland,60473-3018,IL,41.59005,-87.600535,1,rooftop,640,E 168th Pl,,,South Holland,IL,Cook County,60473,US,Cook
Pace Elementary,14500 Myrtle Ave,Harvey,60426-1235,IL,41.627495,-87.652534,1,range_interpolation,14500,Myrtle Ave,,,Harvey,IL,Cook County,60426,US,TIGER/Line® dataset from the US Census Bureau
Eisenhower School,16001 Minerva Ave,South Holland,60473-1776,IL,41.605288,-87.589631,1,rooftop,16001,Minerva Ave,,,South Holland,IL,Cook County,60473,US,Cook
Madison School,15700 Orchid Dr,South Holland,60473-1300,IL,41.610848,-87.605018,1,rooftop,15700,Orchid Dr,,,South Holland,IL,Cook County,60473,US,Cook
Taft School,393 E 163rd St,Harvey,60426-5951,IL,41.593807,-87.633762,1,range_interpolation,393,E 163rd St,,,Harvey,IL,Cook County,60426,US,TIGER/Line® dataset from the US Census Bureau
Coolidge Middle School,15500 7th Ave,Phoenix,60426-2566,IL,41.607603,-87.626784,1,rooftop,15500,7th Ave,,,Phoenix,IL,Cook County,60426,US,Cook
Holmes Elem School,16000 Carse Ave,Harvey,60426-5212,IL,41.598569,-87.639116,1,rooftop,16000,Carse Ave,,,Harvey,IL,Cook County,60426,US,Cook
Maya Angelou Elem Sch,15748 Page Ave,Harvey,60426-4222,IL,41.603574,-87.659723,1,range_interpolation,15748,Page Ave,,,Harvey,IL,Cook County,60426,US,TIGER/Line® dataset from the US Census Bureau
Whittier Elem School,71 E 152nd St,Harvey,60426-3154,IL,41.613798,-87.652362,1,rooftop,71,E 152nd St,,,Harvey,IL,Cook County,60426,US,Cook
Bryant Elem School,14700 Main St,Harvey,60426-1923,IL,41.622466,-87.643006,1,range_interpolation,14700,Main St,,,Harvey,IL,Cook County,60426,US,TIGER/Line® dataset from the US Census Bureau
Brooks Middle School,14741 Wallace St,Harvey,60426-2448,IL,41.621372,-87.631518,1,range_interpolation,14741,Wallace St,,,Harvey,IL,Cook County,60426,US,TIGER/Line® dataset from the US Census Bureau
Jesse C White Learning Academy,16910 S Western Ave,Hazel Crest,,IL,41.582675,-87.675262,1,range_interpolation,16910,Western Ave,,,Hazel Crest,IL,Cook County,60429,US,TIGER/Line® dataset from the US Census Bureau
Barack H Obama Learning Academy,16448 S Park Ave,Markham,,IL,41.590929,-87.653524,1,range_interpolation,16448,Park Ave,,,Markham,IL,Cook County,60428,US,TIGER/Line® dataset from the US Census Bureau
Wolcott School,200 N Wolcott St,Thornton,60476-1254,IL,41.570223,-87.614931,1,rooftop,200,N Wolcott St,,,Thornton,IL,Cook County,60476,US,Cook
Burnham Elem School,13945 S Green Bay Ave,Burnham,60633-1671,IL,41.641592,-87.541256,1,range_interpolation,13945,S Green Bay Ave,,,Chicago,IL,Cook County,60633,US,TIGER/Line® dataset from the US Census Bureau
Wilson Elementary School,560 Wentworth Ave,Calumet City,60409-3493,IL,41.619544,-87.530915,1,rooftop,560,Wentworth Ave,,,Calumet City,IL,Cook County,60409,US,Cook
Wentworth Intermediate School,530 Superior Ave,Calumet City,60409-3439,IL,41.621064,-87.545434,1,rooftop,530,Superior Ave,,,Calumet City,IL,Cook County,60409,US,Cook
Wentworth Jr High School,560 Superior Ave,Calumet City,60409-3439,IL,41.61985,-87.545463,1,rooftop,560,Superior Ave,,,Calumet City,IL,Cook County,60409,US,Cook
Lincoln Elem School,410 157th St,Calumet City,60409-4704,IL,41.610539,-87.535815,1,rooftop,410,157th St,,,Calumet City,IL,Cook County,60409,US,Cook
Schrum Memorial School,485 165th St,Calumet City,60409-6255,IL,41.589579,-87.537927,1,rooftop,485,165th St,,,Calumet City,IL,Cook County,60409,US,Cook
Hoover Elem School,1260 Superior Ave,Calumet City,60409-5731,IL,41.59864,-87.544716,1,rooftop,1260,Superior Ave,,,Calumet City,IL,Cook County,60409,US,Cook
Oak Glen Elem School,2101 182nd St,Lansing,60438-1734,IL,41.563869,-87.566093,1,rooftop,2101,182nd St,,,Lansing,IL,Cook County,60438,US,Cook
Memorial Jr High School,2721 Ridge Rd,Lansing,60438-2933,IL,41.563467,-87.550509,1,rooftop,2721,Ridge Rd,,,Lansing,IL,Cook County,60438,US,Cook
Coolidge Elementary School,17845 Henry St,Lansing,60438-2357,IL,41.570558,-87.533484,1,rooftop,17845,Henry St,,,Lansing,IL,Cook County,60438,US,Cook
Reavis Elem School,17121 Roy St,Lansing,60438-1377,IL,41.584026,-87.536314,1,rooftop,17121,Roy St,,,Lansing,IL,Cook County,60438,US,Cook
Neil Armstrong Elem School,5030 Imperial Dr,Richton Park,60471-1604,IL,41.478077,-87.737592,1,rooftop,5030,Imperial Dr,,,Richton Park,IL,Cook County,60471,US,Cook
Woodgate Elem School,101 Central Ave,Matteson,60443-1111,IL,41.524623,-87.750056,1,rooftop,101,Central Ave,,,Matteson,IL,Cook County,60443,US,Cook
Marya Yates Elementary School,6131 Allemong Dr,Matteson,60443-1061,IL,41.521719,-87.765092,1,rooftop,6131,Allemong Dr,,,Matteson,IL,Cook County,60443,US,Cook
Colin Powell Middle Sch,20600 Matteson Ave,Matteson,60443-2920,IL,41.515874,-87.738883,1,rooftop,20600,Matteson Ave,,,Matteson,IL,Cook County,60443,US,Cook
Sieden Prairie Elementary School,725 Notre Dame Dr,Matteson,60443-1526,IL,41.512875,-87.74899,1,rooftop,725,Notre Dame Dr,,,Matteson,IL,Cook County,60443,US,Cook
Southwood Middle School,18635 Lee St,Country Club Hills,60478-5203,IL,41.550203,-87.728921,1,rooftop,18635,Lee St,,,Country Club Hills,IL,Cook County,60478,US,Cook
Meadowview  School,4701 179th St,Country Club Hills,60478-4700,IL,41.565816,-87.731361,1,range_interpolation,4701,179th St,,,Country Club Hills,IL,Cook County,60478,US,TIGER/Line® dataset from the US Census Bureau
Zenon J Sykuta  School,4301 180th St,Country Club Hills,60478-5101,IL,41.563561,-87.718595,1,range_interpolation,4301,180th St,,,Country Club Hills,IL,Cook County,60478,US,TIGER/Line® dataset from the US Census Bureau
Serena Hills Elem School,255 Pleasant Dr,Chicago Heights,60411-1035,IL,41.532978,-87.65252,1,rooftop,255,Pleasant Dr,,,Chicago Heights,IL,Cook County,60411,US,Cook
Illinois School,210 Illinois St,Park Forest,60466-1100,IL,41.502663,-87.680236,1,rooftop,210,Illinois St,,,Park Forest,IL,Cook County,60466,US,Cook
Arcadia Elem School,20519 Arcadian Dr,Olympia Fields,60461-1396,IL,41.515508,-87.701168,1,rooftop,20519,Arcadian Dr,,,Olympia Fields,IL,Cook County,60461,US,Cook
O W Huth Middle School,3718 213th Pl,Matteson,60443-2575,IL,41.501582,-87.706459,1,range_interpolation,3718,213th Pl,,,Matteson,IL,Cook County,60443,US,TIGER/Line® dataset from the US Census Bureau
Indiana Elem School,165 Indiana St,Park Forest,60466-1078,IL,41.501113,-87.692557,1,rooftop,165,Indiana St,,,Park Forest,IL,Cook County,60466,US,Cook
Sauk Elem School,4435 S Churchill Dr,Richton Park,60471-1101,IL,41.485626,-87.724243,1,range_interpolation,4435,S Churchill Dr,,,Richton Park,IL,Cook County,60471,US,TIGER/Line® dataset from the US Census Bureau
Richton Square School,22700 Richton Square Rd,Richton Park,60471-2504,IL,41.476452,-87.709072,1,rooftop,22700,Richton Square Rd,,,Richton Park,IL,Cook County,60471,US,Cook
Matteson Elem School,21245 Main St,Matteson,60443-2561,IL,41.50266,-87.702404,1,rooftop,21245,Main St,,,Matteson,IL,Cook County,60443,US,Cook
Michelle Obama Sch of Technology and the Arts,530 Lakewood Blvd,Park Forest,60466-1505,IL,41.484976,-87.697627,1,range_interpolation,530,Lakewood Blvd,,,Park Forest,IL,Cook County,60466,US,TIGER/Line® dataset from the US Census Bureau
Algonquin Primary Center,170 Algonquin St,Park Forest,60466-1425,IL,41.493728,-87.666865,1,rooftop,170,Algonquin St,,,Park Forest,IL,Cook County,60466,US,Cook
21st Century Primary Center,240 S Orchard Dr,Park Forest,60466-2045,IL,41.477028,-87.681397,1,range_interpolation,240,S Orchard Dr,,,Park Forest,IL,Cook County,60466,US,TIGER/Line® dataset from the US Census Bureau
Blackhawk Primary Center,130 Blackhawk Dr,Park Forest,60466-2316,IL,41.471457,-87.687122,1,rooftop,130,Blackhawk Dr,,,Park Forest,IL,Cook County,60466,US,Cook
Mohawk Primary Center,301 Mohawk St,Park Forest,60466-1907,IL,41.478043,-87.695959,1,rooftop,301,Mohawk St,,,Park Forest,IL,Cook County,60466,US,Cook
Barack Obama Sch of Leadership and STEM,401 Concord Dr,Chicago Heights,60411-3916,IL,41.497374,-87.661497,1,range_interpolation,401,Concord Dr,,,Chicago Heights,IL,Cook County,60411,US,TIGER/Line® dataset from the US Census Bureau
Hickory Bend Elem School,600 E 191st Pl,Glenwood,60425-1924,IL,41.541223,-87.595017,1,rooftop,600,E 191st Pl,,,Glenwood,IL,Cook County,60425,US,Cook
Brookwood Middle School,200 E Glenwood Lansing Rd,Glenwood,60425-1751,IL,41.542476,-87.606099,1,range_interpolation,200,E Glenwood Lansing Rd,,,Glenwood,IL,Cook County,60425,US,TIGER/Line® dataset from the US Census Bureau
Brookwood Jr High School,201 E Glenwood Lansing Rd,Glenwood,60425-1742,IL,41.54319,-87.605187,1,rooftop,201,E Glenwood-Lansing Rd,,,Glenwood,IL,Cook County,60425,US,Cook
Longwood Elem School,441 N Longwood Dr,Glenwood,60425-1211,IL,41.554303,-87.631127,1,range_interpolation,441,N Longwood Dr,,,Glenwood,IL,Cook County,60425,US,TIGER/Line® dataset from the US Census Bureau
Strassburg Elem,2002 223rd St,Sauk Village,60411-5029,IL,41.484424,-87.567578,1,range_interpolation,2002,223rd St,,,Sauk Village,IL,Cook County,60411,US,TIGER/Line® dataset from the US Census Bureau
Rickover Jr High School,22151 Torrence Ave,Sauk Village,60411-5141,IL,41.487823,-87.5571,1,rooftop,22151,Torrence Ave,,,Sauk Village,IL,Cook County,60411,US,Cook
Wagoner Elem,1831 215th Pl,Sauk Village,60411-4405,IL,41.496641,-87.571345,1,range_interpolation,1831,215th Pl,,,Sauk Village,IL,Cook County,60411,US,TIGER/Line® dataset from the US Census Bureau
Cottage Grove Upper Grade Center,800 E 14th St,Ford Heights,60411-2085,IL,41.505615,-87.595933,0.87,rooftop,800,E Lincoln Hwy,,,Chicago Heights,IL,Cook County,60411,US,Cook
Medgar Evers Primary Academic Center,1101 E 10th St,Ford Heights,60411-2230,IL,41.513684,-87.590711,1,range_interpolation,1101,E 10th St,,,Ford Heights,IL,Cook County,60411,US,TIGER/Line® dataset from the US Census Bureau
Greenbriar Elem School,101 W Greenbriar Ave,Chicago Heights,60411-1709,IL,41.524668,-87.646061,1,rooftop,101,W Greenbriar Ave,,,Chicago Heights,IL,Cook County,60411,US,Cook
Roosevelt Elem School,1345 Sunnyside Ave,Chicago Heights,60411-2571,IL,41.507031,-87.65236,1,range_interpolation,1345,Sunnyside Ave,,,Chicago Heights,IL,Cook County,60411,US,TIGER/Line® dataset from the US Census Bureau
Lincoln Elem School,1520 Center Ave,Chicago Heights,60411-3634,IL,41.508774,-87.590314,1,place,,,,,Chicago Heights,IL,Cook County,60411,US,TIGER/Line® dataset from the US Census Bureau
Highland School,828 Willow Dr,Chicago Heights,60411-2169,IL,41.516225,-87.649322,1,range_interpolation,828,Willow Dr,,,Chicago Heights,IL,Cook County,60411,US,TIGER/Line® dataset from the US Census Bureau
Kennedy Elem School,1013 Division St,Chicago Heights,60411-2481,IL,41.512911,-87.66388,1,rooftop,1013,Division St,,,Chicago Heights,IL,Cook County,60411,US,Cook
Wilson Elem School,422 W 16th Pl,Chicago Heights,60411-3224,IL,41.501026,-87.660909,1,rooftop,422,W 16th Pl,,,Chicago Heights,IL,Cook County,60411,US,Cook
Jefferson Elem School,176 E 11th St,Chicago Heights,60411-2937,IL,41.51132,-87.632311,1,rooftop,176,E 11th St,,,Chicago Heights,IL,Cook County,60411,US,Cook
U S Grant Elem School,2712 Miller Ave,South Chicago Heights,60411-4742,IL,41.489247,-87.640713,1,rooftop,2712,Miller Ave,,,South Chicago Heights,IL,Cook County,60411,US,Cook
Garfield Elem School,140 E 23rd St,Chicago Heights,60411-4247,IL,41.49403,-87.631558,0.89,nearest_rooftop_match,136,E 23rd St,,,Chicago Heights,IL,Cook County,60411,US,Cook
Washington-McKinley Elem Sch,25 W 16th Pl,Chicago Heights,60411-3475,IL,41.501327,-87.642207,1,range_interpolation,25,W 16th Pl,,,Chicago Heights,IL,Cook County,60411,US,TIGER/Line® dataset from the US Census Bureau
Heritage Middle School,19250 Burnham Ave,Lansing,60438-3822,IL,41.546,-87.539359,1,range_interpolation,19250,Burnham Ave,,,Lansing,IL,Cook County,60438,US,TIGER/Line® dataset from the US Census Bureau
Nathan Hale Elem School,19055 Burnham Ave,Lansing,60438-3605,IL,41.549394,-87.537679,1,rooftop,19055,Burnham Ave,,,Lansing,IL,Cook County,60438,US,Cook
Sandridge Elem School,2950 Glenwood Dyer Rd,Lynwood,60411-9755,IL,41.51806,-87.545395,1,range_interpolation,2950,Glenwood Dyer Rd,,,Lynwood,IL,Cook County,60411,US,TIGER/Line® dataset from the US Census Bureau
Columbia Central School,94 Richton Rd,Steger,60475-1821,IL,41.460071,-87.638497,0.9,rooftop,94,W Richton Rd,,,Steger,IL,Will County,60475,US,Will
Steger Intermediate Center,3411 Hopkins St,Steger,60475-1731,IL,41.469113,-87.626127,0.87,rooftop,3411,Hopkins Ave,,,Steger,IL,Will County,60475,US,Will
Steger Primary Center,3411 MIller Avenue,South Chicago Heights,60411-6007,IL,41.477198,-87.64051,0.67,nearest_rooftop_match,3344,Miller Ave,,,South Chicago Heights,IL,Cook County,60411,US,Cook
Thornwood High School,17101 S Park Ave,South Holland,60473-3484,IL,41.583396,-87.604789,1,rooftop,17101,S Park Ave,,,South Holland,IL,Cook County,60473,US,Cook
Thornridge High School,15000 Cottage Grove Ave,Dolton,60419-2738,IL,41.62241,-87.597809,1,range_interpolation,15000,Cottage Grove Ave,,,Dolton,IL,Cook County,60419,US,TIGER/Line® dataset from the US Census Bureau
Thornton Township High School,15001 Broadway Ave,Harvey,60426-2272,IL,41.616843,-87.643847,1,rooftop,15001,Broadway Ave,,,Harvey,IL,Cook County,60426,US,Cook
Bloom High School,101 W 10th St,Chicago Heights,60411-2100,IL,41.513192,-87.645238,1,range_interpolation,101,W 10th St,,,Chicago Heights,IL,Cook County,60411,US,TIGER/Line® dataset from the US Census Bureau
Bloom Trail High School,22331 Cottage Grove Ave,Chicago Heights,60411-5652,IL,41.515667,-87.59719,0.6,street_center,,Cottage Grove Ave,,,Chicago Heights,IL,Cook County,60411,US,TIGER/Line® dataset from the US Census Bureau
Dist 206 Alternative High School,100 W 10th St,Chicago Heights,60411-2002,IL,41.512785,-87.644062,1,rooftop,100,W 10th St,,,Chicago Heights,IL,Cook County,60411,US,Cook
Thornton Fractnl So High School,18500 Burnham Ave,Lansing,60438-3046,IL,41.558668,-87.540411,1,rooftop,18500,Burnham Ave,,,Lansing,IL,Cook County,60438,US,Cook
Center for Academics and Technology,1605 Wentworth,Calumet City,60409-6309,IL,41.585593,-87.528864,1,rooftop,1605,Wentworth Ave,,,Calumet City,IL,Cook County,60409,US,Cook
Thornton Fractnl No High School,755 Pulaski Rd,Calumet City,60409-4030,IL,41.61505,-87.543635,1,rooftop,755,Pulaski Rd,,,Calumet City,IL,Cook County,60409,US,Cook
Argo Community High School,7329 W 63rd St,Summit,60501-1817,IL,41.776499,-87.804462,1,rooftop,7329,W 63rd St,,,Summit Argo,IL,Cook County,60501,US,Cook
A B Shepard High Sch (Campus),13049 S Ridgeland Ave,Palos Heights,60463-2625,IL,41.655088,-87.775691,1,rooftop,13049,S Ridgeland Ave,,,Palos Heights,IL,Cook County,60463,US,Cook
H L Richards High Sch(Campus),10601 Central Ave,Oak Lawn,60453-5038,IL,41.702356,-87.759528,1,range_interpolation,10601,Central Ave,,,Oak Lawn,IL,Cook County,60453,US,TIGER/Line® dataset from the US Census Bureau
DD Eisenhower High Sch (Campus),12700 Sacramento Ave,Blue Island,60406-1822,IL,41.661892,-87.695548,1,rooftop,12700,Sacramento Ave,,,Blue Island,IL,Cook County,60406,US,Cook
Delta Learning Center,3940 W 137th St,Robbins,60472-1539,IL,41.64227,-87.716849,1,range_interpolation,3940,W 137th St,,,Robbins,IL,Cook County,60472,US,TIGER/Line® dataset from the US Census Bureau
Rich Central Campus High School,3600 W 203rd St,Olympia Fields,60461-1025,IL,41.522374,-87.706271,1,rooftop,3600,W 203rd St,,,Olympia Fields,IL,Cook County,60461,US,Cook
Rich South Campus High School,5000 Sauk Trl,Richton Park,60471-1000,IL,41.485679,-87.737323,1,rooftop,5000,Sauk Trl,,,Richton Park,IL,Cook County,60471,US,Cook
Rich East Campus High School,300 Sauk Trl,Park Forest,60466-1640,IL,41.480986,-87.692544,1,rooftop,300,Sauk Trl,,,Park Forest,IL,Cook County,60466,US,Cook
Academy for Lifelong Learning (ALL),410 Ashland Ave,Chicago Heights,60411-1665,IL,41.523492,-87.655489,1,rooftop,410,Ashland Ave,,,Chicago Heights,IL,Cook County,60411,US,Cook
Speed Independence Elem Sch,1125 Division St,Chicago Heights,60411-2419,IL,41.511128,-87.66356,1,rooftop,1125,Division St,,,Chicago Heights,IL,Cook County,60411,US,Cook
Speed Program for Adaptive Learn,1125 Division St,Chicago Heights,60411-2419,IL,41.511128,-87.66356,1,rooftop,1125,Division St,,,Chicago Heights,IL,Cook County,60411,US,Cook
Speed Early Learning Center,1125 Division St,Chicago Heights,60411-2419,IL,41.511128,-87.66356,1,rooftop,1125,Division St,,,Chicago Heights,IL,Cook County,60411,US,Cook
New Life Celebration Church,PO Box 322,Dolton,60419-0322,IL,41.63892,-87.60727,0.33,place,322,PO Box,,,Dolton,IL,Cook County,60419,US,TIGER/Line® dataset from the US Census Bureau
Glenwood Academy,500 W 187th St,Glenwood,60425-1317,IL,41.546989,-87.629304,1,rooftop,500,W 187th St,,,Glenwood,IL,Cook County,60425,US,Cook
West Carroll Middle School,633 S East St,Mount Carroll,61053-1462,IL,42.092805,-89.968247,0.9,range_interpolation,633,Southeast St,,,Mount Carroll,IL,Carroll County,61053,US,TIGER/Line® dataset from the US Census Bureau
West Carroll Primary,2215 Wacker Rd,Savanna,61074-2823,IL,42.080548,-90.12109,1,range_interpolation,2215,Wacker Rd,,,Savanna,IL,Carroll County,61074,US,TIGER/Line® dataset from the US Census Bureau
Stockton Elem School,236 N Pearl St,Stockton,61085-1308,IL,42.351661,-90.008701,1,range_interpolation,236,N Pearl St,,,Stockton,IL,Jo Daviess County,61085,US,TIGER/Line® dataset from the US Census Bureau
Northwest Academy,310 N West St,Elizabeth,61028-8017,IL,42.309263,-90.181064,0.33,place,,,,,Elizabeth,IL,Jo Daviess County,61028,US,TIGER/Line® dataset from the US Census Bureau
Norman C Sleezer Youth Home,PO Box 895,Freeport,61032-0895,IL,42.323529,-89.591606,0.33,place,895,PO Box,,,Freeport,IL,Stephenson County,61032,US,TIGER/Line® dataset from the US Census Bureau
Freeport High School,701 W Moseley St,Freeport,61032-4938,IL,42.289551,-89.628858,1,range_interpolation,701,W Moseley St,,,Freeport,IL,Stephenson County,61032,US,TIGER/Line® dataset from the US Census Bureau
Jones Farrar International Baccalaureate World School,1386 Kiwanis Dr,Freeport,61032-6908,IL,42.286095,-89.673057,1,rooftop,1386,Kiwanis Dr,,,Freeport,IL,Stephenson County,61032,US,Stephenson
RAP Elizabeth,950 US Highway 20 W,Elizabeth,61028-9333,IL,42.315691,-90.199136,1,range_interpolation,950,US Hwy 20,,,Elizabeth,IL,Jo Daviess County,61028,US,TIGER/Line® dataset from the US Census Bureau
Empire Elem School,1325 Empire St,Freeport,61032-6114,IL,42.284801,-89.642843,1,rooftop,1325,Empire Ct,,,Freeport,IL,Stephenson County,61032,US,Stephenson
RAP Freeport,27 S State Ave,Freeport,61032-4210,IL,42.2986,-89.617817,1,rooftop,27,S State Ave,,,Freeport,IL,Stephenson County,61032,US,Stephenson
Freeport Alternative High Sch,1330 S Locust Ave,Freeport,61032-6325,IL,42.286121,-89.626402,0.9,range_interpolation,1330,S Locust Ave,,,Freeport,IL,Stephenson County,61032,US,TIGER/Line® dataset from the US Census Bureau
Taylor Park Elem School,806 E Stephenson St,Freeport,61032-3434,IL,42.302115,-89.606429,1,rooftop,806,E Stephenson,,,Freeport,IL,Stephenson County,61032,US,Stephenson
Lincoln-Douglas Elementary School,1700 W Laurel St,Freeport,61032-3511,IL,42.30111,-89.653864,1,range_interpolation,1700,W Laurel St,,,Freeport,IL,Stephenson County,61032,US,TIGER/Line® dataset from the US Census Bureau
Blackhawk Elem School,1401 S Blackhawk Ave,Freeport,61032-6303,IL,42.285724,-89.622992,1,rooftop,1401,S Blackhawk Ave,,,Freeport,IL,Stephenson County,61032,US,Stephenson
Center Elem School,718 E Illinois St,Freeport,61032-5731,IL,42.28874,-89.607478,1,range_interpolation,718,E Illinois St,,,Freeport,IL,Stephenson County,61032,US,TIGER/Line® dataset from the US Census Bureau
Freeport Middle School,701 W Empire St,Freeport,61032-6355,IL,42.2874,-89.626508,1,range_interpolation,701,W Empire St,,,Freeport,IL,Stephenson County,61032,US,TIGER/Line® dataset from the US Census Bureau
Carl Sandburg Middle Sch,1717 W Eby St,Freeport,61032-4644,IL,42.289735,-89.651473,1,range_interpolation,1717,W Eby St,,,Freeport,IL,Stephenson County,61032,US,TIGER/Line® dataset from the US Census Bureau
R E A D Y Program,45 E University Ave,Champaign,61820-4076,IL,40.115897,-88.241134,1,rooftop,45,E University Ave,,,Champaign,IL,Champaign County,61820,US,Champaign
Robeson Elem School,2501 Southmoor Dr,Champaign,61821-5725,IL,40.090845,-88.287416,1,rooftop,2501,Southmoor Dr,,,Champaign,IL,Champaign County,61821,US,Champaign
Centennial High School,913 Crescent Dr,Champaign,61821-4243,IL,40.105875,-88.282359,1,rooftop,913,Crescent Dr,,,Champaign,IL,Champaign County,61821,US,Champaign
Edison Middle School,306 W Green St,Champaign,61820-5007,IL,40.110622,-88.247591,1,rooftop,306,W Green St,,,Champaign,IL,Champaign County,61820,US,Champaign
Jefferson Middle School,1115 Crescent Dr,Champaign,61821-4241,IL,40.103541,-88.282551,1,rooftop,1115,Crescent Dr,,,Champaign,IL,Champaign County,61821,US,Champaign
Novak Academy,815 N Randolph St,Champaign,61820-2936,IL,40.12402,-88.245587,1,rooftop,815,N Randolph St,,,Champaign,IL,Champaign County,61820,US,Champaign
Franklin Middle School,817 N Harris Ave,Champaign,61820-2849,IL,40.123959,-88.253299,1,range_interpolation,817,N Harris Ave,,,Champaign,IL,Champaign County,61820,US,TIGER/Line® dataset from the US Census Bureau
Westview Elem School,703 S Russell St,Champaign,61821-4420,IL,40.108163,-88.267729,1,rooftop,703,S Russell St,,,Champaign,IL,Champaign County,61821,US,Champaign
Kenwood Elem School,1001 Stratford Dr,Champaign,61821-4637,IL,40.104983,-88.292937,1,rooftop,1001,Stratford Dr,,,Champaign,IL,Champaign County,61821,US,Champaign
Washington Elem School,606 E Grove St,Champaign,61820-3241,IL,40.123261,-88.230853,1,range_interpolation,606,E Grove St,,,Champaign,IL,Champaign County,61820,US,TIGER/Line® dataset from the US Census Bureau
Dr Howard Elem School,1103 N Neil St,Champaign,61820-3030,IL,40.126797,-88.243909,1,rooftop,1103,N Neil St,,,Champaign,IL,Champaign County,61820,US,Champaign
International Prep Academy,1605 W Kirby Ave,Champaign,61821-5510,IL,40.097864,-88.27269,1,rooftop,1605,W Kirby Ave,,,Champaign,IL,Champaign County,61821,US,Champaign
Garden Hills Elem School,2001 Garden Hills Dr,Champaign,61821-1522,IL,40.136285,-88.273603,1,rooftop,2001,Garden Hills Dr,,,Champaign,IL,Champaign County,61821,US,Champaign
Stratton Elementary School,902 N Randolph St,Champaign,61820-2939,IL,40.124565,-88.244669,1,rooftop,902,N Randolph St,,,Champaign,IL,Champaign County,61820,US,Champaign
Juvenile Detention Center,400 Art Bartell Rd,Urbana,61802-2879,IL,40.110166,-88.183747,1,rooftop,400,Art Bartell Rd,,,Urbana,IL,Champaign County,61802,US,Champaign
Swann Special Care Center,109 Kenwood Rd,Champaign,61821-2905,IL,40.115694,-88.286706,1,rooftop,109,Kenwood Rd,,,Champaign,IL,Champaign County,61821,US,Champaign
Walter Lawson Childrens Home,1820 Walter Lawson Dr,Loves Park,61111-2757,IL,42.34116,-89.027391,1,rooftop,1820,Walter Lawson Dr,,,Loves Park,IL,Winnebago County,61111,US,Winnebago
Yankee Ridge Elem School,2102 S Anderson St,Urbana,61801-6710,IL,40.090641,-88.199397,1,range_interpolation,2102,S Anderson St,,,Urbana,IL,Champaign County,61801,US,TIGER/Line® dataset from the US Census Bureau
Leal Elem School,312 W Oregon St,Urbana,61801-4126,IL,40.107956,-88.211008,1,rooftop,312,W Oregon St,,,Urbana,IL,Champaign County,61801,US,Champaign
Urbana High School,1002 S Race St,Urbana,61801-4957,IL,40.103738,-88.208911,1,rooftop,1002,S Race St,,,Urbana,IL,Champaign County,61801,US,Champaign
Urbana Middle School,1201 S Vine St,Urbana,61801-5016,IL,40.102917,-88.205753,1,rooftop,1201,S Vine St,,,Urbana,IL,Champaign County,61801,US,Champaign
Wiley Elementary School,1602 S Anderson St,Urbana,61801-5113,IL,40.099138,-88.199972,1,range_interpolation,1602,S Anderson St,,,Urbana,IL,Champaign County,61801,US,TIGER/Line® dataset from the US Census Bureau
M L King Jr Elem School,1108 Fairview Ave,Urbana,61801-1508,IL,40.120482,-88.223285,1,rooftop,1108,Fairview Ave,,,Urbana,IL,Champaign County,61801,US,Champaign
Thomas Paine Elem School,1801 James Cherry Dr,Urbana,61802-5584,IL,40.098764,-88.18568,1,range_interpolation,1801,James Cherry Dr,,,Urbana,IL,Champaign County,61802,US,TIGER/Line® dataset from the US Census Bureau
Dr Preston L Williams Jr Elementary School,2102 E Washington St,Urbana,61802-4520,IL,40.106491,-88.180126,1,rooftop,2102,E Washington St,,,Urbana,IL,Champaign County,61802,US,Champaign
Thomasboro Grade School,201 N Phillips St,Thomasboro,61878-9784,IL,40.240726,-88.186534,1,rooftop,201,N Phillips St,,,Thomasboro,IL,Champaign County,61878,US,Champaign
Pleasant Acres Elem School,1625 Short St,Rantoul,61866-3335,IL,40.307921,-88.12633,1,rooftop,1625,Short St,,,Rantoul,IL,Champaign County,61866,US,Champaign
Northview Elem School,400 N Sheldon St,Rantoul,61866-1830,IL,40.314338,-88.149449,1,rooftop,400,N Sheldon St,,,Rantoul,IL,Champaign County,61866,US,Champaign
Broadmeadow Elem School,500 Sunview Rd,Rantoul,61866-2121,IL,40.305825,-88.168899,1,rooftop,500,Sunview Rd,,,Rantoul,IL,Champaign County,61866,US,Champaign
Eastlawn Elem School,650 N Maplewood Dr,Rantoul,61866-1714,IL,40.317168,-88.135603,1,rooftop,650,N Maplewood Dr,,,Rantoul,IL,Champaign County,61866,US,Champaign
J W Eater Jr High School,400 E Wabash Ave,Rantoul,61866-3013,IL,40.306183,-88.15369,1,rooftop,400,E Wabash Ave,,,Rantoul,IL,Champaign County,61866,US,Champaign
Ludlow Elementary School,PO Box 130,Ludlow,60949-0130,IL,40.370897,-88.152546,0.33,place,130,PO Box,,,Ludlow,IL,Champaign County,60949,US,TIGER/Line® dataset from the US Census Bureau
Rantoul Twp High School,200 S Sheldon St,Rantoul,61866-2431,IL,40.308816,-88.150195,1,rooftop,200,S Sheldon St,,,Rantoul,IL,Champaign County,61866,US,Champaign
Clara Peterson Elem School,PO Box 50,Paxton,60957-0050,IL,40.46031,-88.09532,0.33,place,50,PO Box,,,Paxton,IL,Ford County,60957,US,TIGER/Line® dataset from the US Census Bureau
Paxton-Buckley-Loda Jr High Sch,PO Box 50,Paxton,60957-0050,IL,40.46031,-88.09532,0.33,place,50,PO Box,,,Paxton,IL,Ford County,60957,US,TIGER/Line® dataset from the US Census Bureau
Shelbyville Bridges,201 E North 12th St,Shelbyville,62565-1018,IL,39.420045,-88.794087,0.6,street_center,,E North 12th St,,,Shelbyville,IL,Shelby County,62565,US,TIGER/Line® dataset from the US Census Bureau
Humboldt Bridges,308 Adams St,Humboldt,,IL,39.607982,-88.317786,1,range_interpolation,308,Adams St,,,Humboldt,IL,Coles County,61931,US,TIGER/Line® dataset from the US Census Bureau
Paris Bridges,210 E Court St,Paris,61944-2292,IL,39.611048,-87.692436,1,range_interpolation,210,E Court St,,,Paris,IL,Edgar County,61944,US,TIGER/Line® dataset from the US Census Bureau
Lerna Bridges,PO Box 129,Lerna,62440-0129,IL,39.418401,-88.270006,0.33,place,129,PO Box,,,Lerna,IL,Coles County,62440,US,TIGER/Line® dataset from the US Census Bureau
Martinsville Jr-Sr High School,PO Box K,Martinsville,62442-0166,IL,39.325782,-87.850086,1,place,,,,,Martinsville,IL,Clark County,62442,US,TIGER/Line® dataset from the US Census Bureau
Martinsville Elem School,PO Box 396,Martinsville,62442-0396,IL,39.325782,-87.850086,0.33,place,396,PO Box,,,Martinsville,IL,Clark County,62442,US,TIGER/Line® dataset from the US Census Bureau
Jefferson Elem School,801 Jefferson Ave,Charleston,61920-1527,IL,39.497878,-88.173868,1,rooftop,801,Jefferson Ave,,,Charleston,IL,Coles County,61920,US,Coles
Carl Sandburg Elem School,1924 Reynolds Dr,Charleston,61920-3157,IL,39.478224,-88.191278,1,range_interpolation,1924,Reynolds Dr,,,Charleston,IL,Coles County,61920,US,TIGER/Line® dataset from the US Census Bureau
Mark Twain Elem School,1021 13th St,Charleston,61920-2906,IL,39.486299,-88.16802,1,range_interpolation,1021,13th St,,,Charleston,IL,Coles County,61920,US,TIGER/Line® dataset from the US Census Bureau
Mattoon Middle School,1200 S 9th St,Mattoon,61938-6002,IL,39.472461,-88.362233,1,rooftop,1200,S 9th St,,,Mattoon,IL,Coles County,61938,US,Coles
Riddle Elementary School,4201 Western Ave,Mattoon,61938-2049,IL,39.483673,-88.414114,1,range_interpolation,4201,Western Ave,,,Mattoon,IL,Coles County,61938,US,TIGER/Line® dataset from the US Census Bureau
Arland D Williams Jr Elem Sch,1709 S 9th St,Mattoon,61938-6000,IL,39.465167,-88.364424,1,range_interpolation,1709,S 9th St,,,Mattoon,IL,Coles County,61938,US,TIGER/Line® dataset from the US Census Bureau
Adult LIFE Academy,1617 Lake Land Blvd,Mattoon,,IL,39.465689,-88.377392,1,rooftop,1617,Lakeland Blvd,,,Mattoon,IL,Coles County,61938,US,Coles
Fresh Start Treatment & Learning,215 N 1st St,Effingham,62401-3424,IL,39.122321,-88.538487,1,range_interpolation,215,N 1st St,,,Effingham,IL,Effingham County,62401,US,TIGER/Line® dataset from the US Census Bureau
Treatment & Learning Center,PO Box 259,Kansas,61933-0259,IL,39.637094,-87.896219,0.33,place,259,PO Box,,,Kansas,IL,Edgar County,61933,US,TIGER/Line® dataset from the US Census Bureau
Treatment & Learning Center-H,PO Box 97,Humboldt,61931-0097,IL,39.586199,-88.347315,0.33,place,97,PO Box,,,Humboldt,IL,Coles County,61931,US,TIGER/Line® dataset from the US Census Bureau
LIFE Academy,2405 Champaign Ave,Mattoon,,IL,39.485773,-88.384956,1,rooftop,2405,Champaign Ave,,,Mattoon,IL,Coles County,61938,US,Coles
